City,Latitude,Longitude,Country,Date,Max Temperature,Humidity,Cloudiness,Wind Speed
East London,-33.0153,27.9116,ZA,1613172133,75.9,84,45,3.89
Thompson,55.7435,-97.8558,CA,1613172001,-16.6,63,1,2.3
Mar del Plata,-38.0023,-57.5575,AR,1613171808,69.8,94,90,13.8
Ushuaia,-54.8,-68.3,AR,1613172082,59.0,41,75,12.66
Patitiri,39.15,23.8667,GR,1613172137,49.51,66,99,9.64
New Norfolk,-42.7826,147.0587,AU,1613172137,64.99,59,24,1.99
Mataura,-46.1927,168.8643,NZ,1613172138,68.0,59,90,1.99
Arrifes,37.7667,-25.7,PT,1613172139,60.01,94,40,16.11
Alihe,50.5667,123.7167,CN,1613172140,-0.4,88,9,5.08
Sembakung,3.8167,117.25,ID,1613172140,77.0,94,40,4.61
Saint-Joseph,-21.3667,55.6167,RE,1613172141,78.8,73,40,12.66
Hermanus,-34.4187,19.2345,ZA,1613172142,68.0,83,5,1.01
Diego de Almagro,-26.3667,-70.05,CL,1613172142,73.83,31,0,9.71
Atuona,-9.8,-139.0333,PF,1613172143,79.03,79,4,15.48
Broken Hill,-31.95,141.4333,AU,1613172144,64.4,52,0,20.71
Busselton,-33.65,115.3333,AU,1613172145,62.01,81,1,1.99
Lebu,-37.6167,-73.65,CL,1613172146,60.51,79,25,13.42
Vaini,-21.2,-175.2,TO,1613171533,84.2,79,75,9.22
Walvis Bay,-22.9575,14.5053,NA,1613172147,70.0,83,87,8.05
Huancabamba,-5.2386,-79.4506,PE,1613172148,61.39,84,99,4.41
Ribeira Grande,38.5167,-28.7,PT,1613171884,60.19,77,79,26.37
Longyearbyen,78.2186,15.6401,SJ,1613172149,8.6,85,90,8.05
Aklavik,68.2191,-135.0107,CA,1613172150,-7.6,71,75,4.68
Kapaa,22.0752,-159.319,US,1613172073,77.0,57,20,9.22
Saint-Augustin,51.226,-58.6502,CA,1613172152,18.21,92,30,12.88
Nioro,13.35,-15.75,GM,1613172152,79.84,16,0,6.96
Labuhan,-6.8844,112.2051,ID,1613172153,77.34,86,100,8.25
Tarpon Springs,28.1461,-82.7568,US,1613172154,77.0,78,95,6.91
Torbay,47.6666,-52.7314,CA,1613172155,30.99,93,90,33.38
Murray Bridge,-35.1167,139.2667,AU,1613172156,64.0,80,41,3.0
Cayenne,4.9333,-52.3333,GF,1613172157,78.8,94,90,10.36
Bredasdorp,-34.5322,20.0403,ZA,1613172157,69.8,78,4,2.3
Matara,5.9485,80.5353,LK,1613172158,72.81,89,60,1.32
Kyotera,-0.6156,31.5175,UG,1613172159,69.75,72,92,3.53
Mount Gambier,-37.8333,140.7667,AU,1613172160,59.0,88,90,10.36
Portland,45.5234,-122.6762,US,1613171522,27.0,74,90,18.41
Butaritari,3.0707,172.7902,KI,1613171812,81.19,83,35,11.88
Nikolskoye,59.7035,30.7861,RU,1613172162,3.0,77,75,4.47
Codrington,-38.2667,141.9667,AU,1613172163,62.28,67,37,11.99
La Providencia,28.7167,-111.5833,MX,1613172164,73.0,44,47,17.0
Kumul,42.8,93.45,CN,1613172164,31.42,84,23,4.34
Ilulissat,69.2167,-51.1,GL,1613172166,3.2,85,0,5.75
Aswān,24.0934,32.907,EG,1613172167,62.33,30,0,12.24
Marsá Maţrūḩ,31.3525,27.2453,EG,1613172168,55.4,71,40,8.05
San Lorenzo,-25.3333,-57.5333,PY,1613172168,84.2,58,40,3.02
Bengkulu,-3.8004,102.2655,ID,1613172169,77.52,81,97,3.83
Sørland,67.667,12.6934,NO,1613171812,32.0,80,75,11.5
Show Low,34.2542,-110.0298,US,1613172170,50.0,29,20,14.97
Natal,-5.795,-35.2094,BR,1613172004,82.4,74,20,14.97
Rikitea,-23.1203,-134.9692,PF,1613171811,80.46,70,35,8.86
Castro,-24.7911,-50.0119,BR,1613172173,63.59,94,77,2.71
Praxédis Guerrero,31.3667,-106.0167,MX,1613172173,66.2,15,90,14.97
San Jerónimo,-11.9472,-75.2829,PE,1613172174,51.28,74,97,11.79
Inongo,-1.95,18.2667,CD,1613172175,78.4,66,71,4.43
Nuuk,64.1835,-51.7216,GL,1613172176,17.6,79,40,12.66
Port Alfred,-33.5906,26.891,ZA,1613172177,73.99,95,65,4.0
Ridgecrest,35.6225,-117.6709,US,1613171892,68.0,24,1,12.66
Tasiilaq,65.6145,-37.6368,GL,1613172178,30.2,69,75,34.52
Saint George,37.1041,-113.5841,US,1613172061,64.99,31,1,4.61
Aban,56.67,96.06,RU,1613172180,-15.5,86,98,2.93
Leningradskiy,69.3833,178.4167,RU,1613172180,-19.66,82,97,8.05
Albany,42.6001,-73.9662,US,1613172068,18.0,36,94,2.84
Nanortalik,60.1432,-45.2371,GL,1613172182,31.96,90,99,10.58
Santa Cecília,-26.9608,-50.4269,BR,1613172182,61.09,100,84,4.79
Kalmunai,7.4167,81.8167,LK,1613172183,73.98,91,29,7.7
Barrow,71.2906,-156.7887,US,1613172184,-9.4,70,90,9.22
Emerald,-23.5333,148.1667,AU,1613172185,78.8,61,25,5.75
Revda,56.801,59.9303,RU,1613172185,-2.2,84,40,4.47
Taree,-31.9,152.4667,AU,1613172186,71.6,100,40,6.91
Half Moon Bay,37.4636,-122.4286,US,1613172187,59.0,82,20,13.8
Yangi Marg`ilon,40.4272,71.7189,UZ,1613172187,46.4,46,100,4.61
Bluff,-46.6,168.3333,NZ,1613171810,66.0,61,92,1.01
Jamestown,42.097,-79.2353,US,1613172178,24.01,67,1,5.75
Bethel,41.3712,-73.414,US,1613172191,27.0,33,90,4.61
Hilo,19.7297,-155.09,US,1613172084,82.4,54,20,11.5
Khatanga,71.9667,102.5,RU,1613172192,-27.06,85,91,7.47
Sungai Penuh,-2.0833,101.3833,ID,1613172193,64.85,93,100,3.27
Hong Kong,22.2855,114.1577,HK,1613172026,64.0,80,48,5.14
Juli,-16.2167,-69.45,PE,1613172195,48.33,79,32,3.98
Eureka,40.8021,-124.1637,US,1613172196,52.0,96,100,5.99
Saint Paul Harbor,57.79,-152.4072,US,1613171813,35.6,75,90,19.57
Wilmington,34.2257,-77.9447,US,1613172052,44.01,87,90,10.36
Cabo San Lucas,22.8909,-109.9124,MX,1613172198,73.99,60,1,11.5
Mildura,-34.2,142.15,AU,1613172199,64.99,59,75,12.66
Punta Arenas,-53.15,-70.9167,CL,1613172017,57.2,47,0,24.16
Kruisfontein,-34.0033,24.7314,ZA,1613172200,75.99,83,96,3.0
Lüderitz,-26.6481,15.1594,NA,1613172201,65.55,80,6,2.06
Lucapa,-8.4192,20.7447,AO,1613172201,65.93,88,90,1.97
Rundu,-17.9333,19.7667,NA,1613172202,63.03,89,100,4.0
Cidreira,-30.1811,-50.2056,BR,1613172203,75.51,80,100,14.41
Abadan,38.0507,58.2056,TM,1613172204,42.8,81,0,4.61
Qaanaaq,77.484,-69.3632,GL,1613172204,-0.76,70,0,4.54
Port Macquarie,-31.4333,152.9167,AU,1613172205,75.99,96,100,4.38
Matamoros,25.5333,-103.25,MX,1613172206,73.4,35,40,6.49
Hithadhoo,-0.6,73.0833,MV,1613172206,81.97,75,100,12.21
Santa Cruz de la Sierra,-17.8,-63.1667,BO,1613171978,75.2,83,40,5.75
Chabahar,25.2919,60.643,IR,1613172208,67.48,67,0,2.66
Esperance,-33.8667,121.9,AU,1613172208,60.8,82,14,5.75
Grootfontein,-19.5667,18.1167,NA,1613172209,64.69,87,100,15.3
Acajutla,13.5928,-89.8275,SV,1613172210,87.8,42,20,2.3
George Town,5.4112,100.3354,MY,1613172211,80.01,88,20,5.48
Basco,20.4487,121.9702,PH,1613172211,72.84,75,9,14.12
Cape Town,-33.9258,18.4232,ZA,1613172125,70.0,88,0,6.91
Mitsamiouli,-11.3847,43.2844,KM,1613172213,82.0,80,100,14.41
Yulara,-25.2406,130.9889,AU,1613172214,62.6,82,90,18.41
Tuktoyaktuk,69.4541,-133.0374,CA,1613172215,-5.8,77,75,4.61
Yellowknife,62.456,-114.3525,CA,1613172216,-11.0,70,20,2.3
Lompoc,34.6391,-120.4579,US,1613172217,62.6,55,1,14.97
Longkou,37.6508,120.3286,CN,1613172218,42.28,75,0,11.79
Ponta do Sol,32.6667,-17.1,PT,1613172218,57.0,71,7,3.0
Ayr,55.4627,-4.6339,GB,1613172139,28.4,64,0,9.22
Chui,-33.6971,-53.4616,UY,1613172220,69.66,92,100,7.72
Itanhém,-17.1664,-40.33,BR,1613172220,72.66,83,35,8.99
Saint Anthony,45.0205,-93.218,US,1613172221,-5.01,41,1,10.36
Pitimbu,-7.4706,-34.8086,BR,1613172222,77.0,94,90,11.5
Selvik,59.5689,10.2583,NO,1613172223,12.99,79,0,1.99
Chokurdakh,70.6333,147.9167,RU,1613172223,-22.81,71,20,3.22
Port Lincoln,-34.7333,135.8667,AU,1613172224,64.72,69,4,7.87
Cuicatlan,17.8,-96.9667,MX,1613172225,76.87,49,9,7.61
Dikson,73.5069,80.5464,RU,1613171654,-25.98,87,88,11.52
Touros,-5.1989,-35.4608,BR,1613172226,80.6,78,20,9.22
Kaeo,-35.1,173.7833,NZ,1613172227,75.99,54,0,3.0
Apollonia,36.9716,24.7231,GR,1613172228,53.6,76,21,5.75
Beloha,-25.1667,45.05,MG,1613172228,75.45,75,99,10.33
Klaksvík,62.2266,-6.589,FO,1613172229,37.4,65,75,21.85
Iqaluit,63.7506,-68.5145,CA,1613172230,-4.0,71,40,18.41
Aykhal,66.0,111.5,RU,1613171961,-22.09,79,92,3.24
Provideniya,64.3833,-173.3,RU,1613172231,-1.12,88,99,31.52
Baykit,61.67,96.37,RU,1613172232,-20.47,82,99,1.45
Himatnagar,23.6,72.95,IN,1613172233,64.26,29,1,6.11
São João da Barra,-21.6403,-41.0511,BR,1613172233,77.63,84,100,14.63
Palmer,42.1584,-72.3287,US,1613172234,24.01,53,90,1.45
Upernavik,72.7868,-56.1549,GL,1613172235,-1.17,80,0,7.38
Kovdor,67.5662,30.4758,RU,1613172235,-0.63,93,86,2.95
Bafoulabé,13.8065,-10.8321,ML,1613172236,83.12,14,0,4.65
Sonoma,38.55,-122.9011,US,1613172237,61.0,63,75,10.36
Spirit River,55.7833,-118.8361,CA,1613172238,0.0,71,12,4.61
Pacocha,-17.5833,-71.3333,PE,1613172238,72.03,73,0,4.25
Lavrentiya,65.5833,-171.0,RU,1613172239,-7.37,89,100,20.76
Hinesburg,44.3292,-73.1107,US,1613172240,8.6,47,20,5.75
Lagoa,39.05,-27.9833,PT,1613172240,58.93,78,64,24.92
Kingaroy,-26.5333,151.8333,AU,1613172241,77.0,57,40,12.66
Hobart,-42.8794,147.3294,AU,1613171990,64.99,48,40,8.05
Isla Mujeres,21.2311,-86.731,MX,1613172243,82.4,74,40,17.27
Ibrā’,22.6906,58.5334,OM,1613172243,56.61,75,0,1.36
Sisimiut,66.9395,-53.6735,GL,1613172244,13.3,92,73,8.16
Faanui,-16.4833,-151.75,PF,1613172245,81.72,75,43,13.2
Saint-Philippe,-21.3585,55.7679,RE,1613172245,78.8,73,40,12.66
Tandaltī,13.0167,31.8667,SD,1613172247,75.4,23,0,10.04
Enumclaw,47.2043,-121.9915,US,1613172248,32.0,75,100,1.99
Pisco,-13.7,-76.2167,PE,1613172248,77.0,65,0,16.11
Ugoofaaru,5.6667,73.0,MV,1613172249,79.7,67,97,10.09
Senneterre,48.3835,-77.2328,CA,1613172250,-4.0,65,20,5.75
Severo-Kuril'sk,50.6789,156.125,RU,1613172250,28.17,94,84,8.23
Puri,19.8,85.85,IN,1613172251,69.8,94,64,10.13
Ciudad del Carmen,18.6333,-91.8333,MX,1613172252,82.4,69,1,3.44
Anloga,5.7947,0.8973,GH,1613172083,82.4,89,20,8.05
Whitianga,-36.8333,175.7,NZ,1613172253,68.92,62,0,5.17
Lucea,18.451,-78.1736,JM,1613172254,80.6,74,40,10.36
Mitú,1.1983,-70.1733,CO,1613172255,78.57,74,43,2.62
Tenosique,17.4833,-91.4333,MX,1613172255,84.2,70,75,7.38
Kenai,60.5544,-151.2583,US,1613172256,32.0,59,1,13.8
Ola,59.5833,151.2833,RU,1613172257,6.49,85,100,4.81
Puerto Ayora,-0.7393,-90.3518,EC,1613172258,82.4,78,75,2.3
Mayor Pablo Lagerenza,-19.9309,-60.7718,PY,1613172258,76.53,70,21,3.65
Merauke,-8.4667,140.3333,ID,1613172259,81.21,82,98,9.17
Los Llanos de Aridane,28.6585,-17.9182,ES,1613172260,64.4,82,0,11.5
Verāval,20.9,70.3667,IN,1613172260,69.24,49,0,10.22
Mahanje,-9.9333,35.3333,TZ,1613172261,64.15,95,100,2.53
Road Town,18.4167,-64.6167,VG,1613172262,78.8,73,20,14.97
Bat Khela,34.6167,71.9714,PK,1613172262,54.82,36,90,6.22
Taormina,37.8536,15.2885,IT,1613172263,57.99,68,80,1.99
Mahébourg,-20.4081,57.7,MU,1613172264,77.0,83,40,14.97
Charters Towers,-20.1,146.2667,AU,1613172265,78.46,63,59,9.51
Richards Bay,-28.783,32.0377,ZA,1613172265,74.61,92,63,1.28
Minervino Murge,41.0843,16.0784,IT,1613172266,42.8,81,40,3.44
Roald,62.5833,6.1333,NO,1613172267,32.0,47,0,9.22
Katsuura,35.1333,140.3,JP,1613172267,48.99,66,20,3.44
Visby,57.6409,18.296,SE,1613172268,32.0,74,90,17.27
Zhigansk,66.7697,123.3711,RU,1613172269,-8.27,90,99,9.57
Treinta y Tres,-33.2333,-54.3833,UY,1613172232,67.68,95,100,6.26
Port Hardy,50.6996,-127.4199,CA,1613172270,33.8,47,90,27.63
Tubualá,9.5167,-79.0333,PA,1613172272,84.2,65,40,3.44
Carnarvon,-24.8667,113.6333,AU,1613172063,78.8,100,64,6.91
Faya,18.3851,42.4509,SA,1613172273,59.0,58,0,3.65
Zambezi,-13.5432,23.1047,ZM,1613172274,64.87,94,46,4.23
Arraial do Cabo,-22.9661,-42.0278,BR,1613171814,77.0,83,90,16.11
Vao,-22.6667,167.4833,NC,1613172275,78.31,76,22,6.53
Porto Walter,-8.2686,-72.7439,BR,1613172277,76.75,95,100,0.45
Oksovskiy,62.6062,39.8984,RU,1613172277,-14.62,89,0,1.97
Ambrolauri,42.5211,43.1622,GE,1613172278,44.6,93,90,16.11
Kodinsk,58.6881,99.1844,RU,1613172279,-11.0,89,100,2.59
Shache,38.4167,77.2406,CN,1613172009,35.24,77,0,3.44
Mount Isa,-20.7333,139.5,AU,1613172280,87.8,58,40,8.05
Colares,38.7992,-9.4469,PT,1613172281,54.0,93,20,4.61
Canguçu,-31.395,-52.6756,BR,1613172282,73.99,89,100,9.51
Isangel,-19.55,169.2667,VU,1613172282,84.2,84,75,3.51
Morondava,-20.2833,44.2833,MG,1613172283,76.33,90,100,18.75
Kemijärvi,66.7131,27.4306,FI,1613172285,20.28,94,84,11.56
Nome,64.5011,-165.4064,US,1613172107,28.4,80,90,21.85
Clyde River,70.4692,-68.5914,CA,1613172286,-2.2,84,75,20.71
Sabha,27.0377,14.4283,LY,1613172287,57.99,41,0,11.95
Souillac,-20.5167,57.5167,MU,1613172288,77.0,83,40,14.97
Avarua,-21.2078,-159.775,CK,1613171806,84.2,70,40,5.75
Meulaboh,4.1363,96.1285,ID,1613172289,76.82,86,92,3.49
Dungarvan,52.0881,-7.6253,IE,1613172290,37.0,82,100,7.0
Seoul,37.5683,126.9778,KR,1613172291,28.4,93,20,1.14
Bangui,4.3612,18.555,CF,1613172292,74.35,21,11,2.71
Boyolangu,-8.1181,111.8935,ID,1613172292,74.64,88,100,1.01
San Felipe,10.3399,-68.7425,VE,1613172293,71.92,85,42,5.79
Vestmannaeyjar,63.4427,-20.2734,IS,1613172294,40.95,89,100,49.77
Guymon,36.6828,-101.4816,US,1613172294,12.2,62,90,6.91
Flin Flon,54.7682,-101.865,CA,1613172295,-14.8,58,20,3.44
Abu Samrah,35.3029,37.1841,SY,1613172296,49.19,79,0,4.83
Kabare,-2.4683,28.8242,CD,1613172297,62.19,84,100,1.28
Tura,25.5198,90.2201,IN,1613172297,60.39,54,0,2.26
Mayo,38.8876,-76.5119,US,1613172298,30.99,59,90,3.44
Taywarah,33.35,64.4167,AF,1613172299,31.5,81,0,2.06
Moindou,-21.6924,165.677,NC,1613172299,86.0,66,20,6.91
Zhangjiakou,40.81,114.8794,CN,1613172300,33.19,76,100,0.85
Manokwari,-0.8667,134.0833,ID,1613172301,80.46,75,100,5.21
Kavaratti,10.5669,72.642,IN,1613172303,80.83,62,94,7.18
Arteaga,18.4667,-102.4167,MX,1613172303,70.5,38,0,9.26
Pevek,69.7008,170.3133,RU,1613172304,-21.21,88,100,6.11
Povenets,62.8487,34.8262,RU,1613172305,-5.4,90,73,6.46
The Valley,18.217,-63.0578,AI,1613172306,77.0,78,40,14.97
Fort-Shevchenko,44.5086,50.263,KZ,1613172306,47.79,77,9,27.13
Rawson,-43.3002,-65.1023,AR,1613172307,69.57,69,4,9.91
Puerto Nariño,-3.7703,-70.3831,CO,1613172308,77.0,100,75,1.39
Port Elizabeth,-33.918,25.5701,ZA,1613172309,75.2,94,75,12.66
Hasaki,35.7333,140.8333,JP,1613172311,41.0,81,20,4.61
Lowestoft,52.4752,1.7516,GB,1613172311,30.0,72,51,5.01
Khilchipur,24.0333,76.5667,IN,1613172313,61.38,30,0,6.8
Carutapera,-1.195,-46.02,BR,1613172313,79.36,84,100,8.93
Jobner,26.9667,75.3833,IN,1613172314,59.0,55,0,2.3
Kimbe,-5.5502,150.1429,PG,1613172064,83.01,75,98,1.7
Kieta,-6.2167,155.6333,PG,1613172316,83.7,74,99,8.93
Saskylakh,71.9167,114.0833,RU,1613171814,-28.32,82,23,2.48
Valdez,1.2492,-78.9831,EC,1613172317,80.6,75,34,6.76
Antofagasta,-23.65,-70.4,CL,1613172294,71.6,53,0,4.61
Cap Malheureux,-19.9842,57.6142,MU,1613172318,75.0,83,12,5.01
Carballo,43.213,-8.691,ES,1613172319,53.6,82,40,10.36
Mehamn,71.0357,27.8492,NO,1613172320,12.2,79,0,12.66
Ahipara,-35.1667,173.1667,NZ,1613172320,72.1,50,0,3.71
Nizwá,22.9333,57.5333,OM,1613172321,58.44,50,0,1.28
La Ronge,55.1001,-105.2842,CA,1613172322,-14.8,64,33,3.44
Inhambane,-23.865,35.3833,MZ,1613172084,79.43,86,93,10.83
Celestún,20.8667,-90.4,MX,1613172323,78.24,77,34,10.65
Gboko,7.3179,8.9951,NG,1613172324,81.64,15,21,4.21
Aldan,58.6031,125.3894,RU,1613172325,-14.89,89,100,3.8
Iquitos,-3.7481,-73.2472,PE,1613172191,80.6,83,75,9.22
Solnechnyy,50.7214,136.6319,RU,1613172326,8.58,93,18,0.81
Vardø,70.3705,31.1107,NO,1613172327,8.6,78,75,14.97
Kaitangata,-46.2817,169.8464,NZ,1613172328,64.0,69,96,1.99
Brae,60.3964,-1.353,GB,1613172328,35.6,55,90,24.16
Nemuro,43.3236,145.575,JP,1613172329,25.07,93,25,6.82
Zaykovo,57.5613,62.7568,RU,1613172330,-2.61,91,92,5.82
Barra do Bugres,-15.0725,-57.1811,BR,1613172330,74.64,95,100,4.25
Puerto Escondido,15.85,-97.0667,MX,1613172331,82.4,83,75,5.75
Joshīmath,30.5667,79.5667,IN,1613172332,46.26,33,52,7.94
Puerto Madryn,-42.7692,-65.0385,AR,1613172049,73.35,60,6,15.61
Tuatapere,-46.1333,167.6833,NZ,1613172333,68.0,59,90,1.99
Keta,5.9179,0.9879,GH,1613172335,82.4,89,20,8.05
Margate,51.3813,1.3862,GB,1613172335,30.0,60,47,4.0
Tecpan,14.7623,-90.9947,GT,1613172336,69.8,68,20,11.5
San Quintín,30.4833,-115.95,MX,1613172067,60.69,79,77,19.98
Nyurba,63.2842,118.3319,RU,1613172338,-14.58,87,100,4.68
Shiraz,29.6036,52.5388,IR,1613172339,37.4,41,0,4.61
Concordia,-31.393,-58.0209,AR,1613172072,69.8,83,75,6.91
Oudtshoorn,-33.5907,22.2014,ZA,1613172316,71.6,94,90,6.91
Saint-Pierre,-21.3393,55.4781,RE,1613172341,78.8,73,40,12.66
Rudnya,54.947,31.0934,RU,1613172342,7.52,94,100,24.29
Swan River,52.1058,-101.2676,CA,1613172343,-20.2,57,80,4.61
Troitsko-Pechorsk,62.7084,56.1964,RU,1613172344,-12.91,89,99,4.56
Guerrero Negro,27.9769,-114.0611,MX,1613172344,62.11,67,91,22.82
Atar,20.5169,-13.0499,MR,1613172345,66.54,21,0,9.62
Verkhnevilyuysk,63.4453,120.3167,RU,1613172346,-15.29,88,100,5.82
Kiryat Gat,31.61,34.7642,IL,1613172244,55.0,82,1,1.7
Xichang,27.8964,102.2634,CN,1613172347,48.0,60,17,0.58
Marystown,47.1666,-55.1483,CA,1613172348,31.06,93,91,20.87
Narsaq,60.9167,-46.05,GL,1613172349,44.6,29,75,31.07
North Platte,41.1239,-100.7654,US,1613172349,-2.2,71,90,13.8
Devgarh,25.5333,73.9,IN,1613172350,61.66,31,0,8.79
Ossora,59.2353,163.0719,RU,1613172351,-2.63,80,0,11.81
Bequimão,-2.4489,-44.7825,BR,1613172351,80.6,89,75,8.05
Fort Nelson,58.8053,-122.7002,CA,1613172352,5.0,61,1,2.04
Anking,30.5092,117.0506,CN,1613172353,49.84,93,0,2.82
Mount Darwin,-16.7725,31.5838,ZW,1613172354,68.58,90,97,3.6
Suntar,62.1444,117.6319,RU,1613172355,-12.12,87,100,5.46
Viedma,-40.8135,-62.9967,AR,1613172356,73.99,70,59,20.36
Agogo,6.8,-1.0819,GH,1613172356,78.13,75,19,6.85
Yerbogachën,61.2767,108.0108,RU,1613172357,-28.73,85,22,3.6
Naliya,23.2667,68.8333,IN,1613172358,63.63,62,0,6.55
Lyubech,51.7026,30.6569,UA,1613172359,8.65,95,100,14.25
Sur,22.5667,59.5289,OM,1613172359,68.81,57,0,6.58
Mumford,5.2618,-0.759,GH,1613172360,81.86,85,30,9.66
Berlevåg,70.8578,29.0864,NO,1613172361,14.0,73,0,12.66
Harper,4.375,-7.7169,LR,1613172361,79.3,89,18,7.2
São Filipe,14.8961,-24.4956,CV,1613172362,73.36,61,7,15.21
Kavieng,-2.5744,150.7967,PG,1613172188,84.54,72,48,8.19
Kotma,23.2,81.9667,IN,1613172364,55.11,42,0,1.59
Sambava,-14.2667,50.1667,MG,1613172365,74.08,91,100,6.38
Padang,-0.9492,100.3543,ID,1613172117,75.2,94,20,2.3
Ankara,39.9199,32.8543,TR,1613172339,30.0,80,40,2.3
Mossamedes,-15.1961,12.1522,AO,1613172367,74.46,73,38,1.48
Ardakān,32.31,54.0175,IR,1613172368,48.2,31,0,4.61
Bandarbeyla,9.4942,50.8122,SO,1613172368,72.5,75,96,11.59
Sarāhan,31.5167,77.8,IN,1613172369,40.75,44,92,9.1
Praia da Vitória,38.7333,-27.0667,PT,1613172370,60.01,77,40,22.3
Yar-Sale,66.8333,70.8333,RU,1613172371,-18.4,88,100,2.68
Ambilobe,-13.2,49.05,MG,1613172371,73.8,94,100,2.46
Comodoro Rivadavia,-45.8667,-67.5,AR,1613172372,64.4,77,20,12.66
Tiznit Province,29.5833,-9.5,MA,1613172373,61.92,52,37,2.13
Mana,5.6592,-53.7767,GF,1613172373,77.54,86,75,13.69
College,64.8569,-147.8028,US,1613172374,10.0,61,20,4.61
Maniitsoq,65.4167,-52.9,GL,1613172375,15.35,88,25,9.64
Ayagoz,47.9714,80.4392,KZ,1613172376,2.39,92,1,8.23
Ledyard Center,41.4398,-72.0142,US,1613172085,28.99,37,90,4.61
Rome,43.2128,-75.4557,US,1613171703,10.4,48,1,2.84
Raja,8.4596,25.678,SS,1613172378,70.68,25,23,3.31
Tynda,55.1667,124.7167,RU,1613172378,-3.71,91,100,6.62
Marawi,7.9986,124.2928,PH,1613172380,75.0,92,40,3.0
Nishihara,26.1842,127.7558,JP,1613172381,68.0,88,20,11.5
Gizo Government Station,-8.103,156.8419,SB,1613172308,81.75,78,99,9.26
Tiksi,71.6872,128.8694,RU,1613172382,-11.34,91,37,1.36
Airai,-8.9266,125.4092,TL,1613172383,64.42,100,89,0.36
Ghogha,21.6833,72.2833,IN,1613172383,71.02,45,0,4.83
Kahului,20.8947,-156.47,US,1613172342,82.4,51,20,10.36
Geraldton,-28.7667,114.6,AU,1613172385,80.6,34,99,3.44
Sakaraha,-22.9,44.5333,MG,1613172385,71.33,84,100,8.81
Salinópolis,-0.6136,-47.3561,BR,1613172386,79.18,87,100,12.01
Kismayo,-0.3582,42.5454,SO,1613172387,76.8,84,92,14.7
Pak Phanang,8.3511,100.202,TH,1613172388,77.0,94,20,2.3
Bāglung,28.2719,83.5898,NP,1613172388,51.48,53,21,4.43
Kandrian,-6.2167,149.55,PG,1613172188,85.19,65,41,2.68
Hohhot,40.8106,111.6522,CN,1613172390,17.6,53,0,4.47
Vila Franca do Campo,37.7167,-25.4333,PT,1613172390,60.01,94,40,16.11
Karaton,-6.3424,106.1045,ID,1613172391,80.01,88,20,1.14
Kelowna,49.8831,-119.4857,CA,1613172273,16.0,48,1,4.61
Qingdao,36.0986,120.3719,CN,1613172393,46.99,100,0,2.24
Alexander City,32.944,-85.9539,US,1613172394,51.8,100,90,3.44
Kununurra,-15.7667,128.7333,AU,1613172395,84.2,94,60,2.3
Burnie,-41.0667,145.9167,AU,1613172395,61.0,85,24,5.01
Ndélé,8.4109,20.6473,CF,1613172396,73.63,19,0,3.98
Saldanha,-33.0117,17.9442,ZA,1613172397,64.4,82,0,9.22
Zakamensk,50.3741,103.2863,RU,1613172397,-17.32,83,18,1.28
Ostrovnoy,68.0531,39.5131,RU,1613172398,2.12,92,100,10.07
Urusha,54.05,122.9,RU,1613172399,-4.34,91,100,4.72
Juneau,58.3019,-134.4197,US,1613172400,33.8,34,1,17.27
Prince Rupert,54.3161,-130.3201,CA,1613172400,33.8,25,1,18.41
Zabul Province,32.25,67.25,AF,1613172401,43.59,53,98,1.83
Ulladulla,-35.35,150.4667,AU,1613172402,64.4,100,90,12.66
Namatanai,-3.6667,152.4333,PG,1613172188,84.49,70,65,3.22
Leh,34.1667,77.5833,IN,1613172403,8.13,55,18,1.5
Mormugao,15.4,73.8,IN,1613172404,71.6,78,20,3.44
Tilichiki,60.4667,166.1,RU,1613172405,-16.37,84,0,13.62
Asău,46.4333,26.4,RO,1613172405,16.0,46,9,7.4
Te Anau,-45.4167,167.7167,NZ,1613172406,62.15,51,90,5.53
Raudeberg,61.9875,5.1352,NO,1613172407,28.0,40,0,11.88
Sapa,5.1544,120.3241,PH,1613172407,80.65,80,100,10.02
Hamilton,39.1834,-84.5333,US,1613172408,28.4,64,90,11.5
Hoshiārpur,31.5322,75.9172,IN,1613172409,55.31,50,100,1.61
Bambous Virieux,-20.3428,57.7575,MU,1613172410,77.0,83,40,14.97
Port Shepstone,-30.7414,30.455,ZA,1613172410,75.96,84,9,12.03
Kogon,39.7228,64.5517,UZ,1613172412,44.6,81,0,6.91
Laguna,38.421,-121.4238,US,1613172412,64.0,55,40,4.81
Neryungri,56.6709,124.6491,RU,1613172413,-13.88,86,100,9.69
Kenmare,51.8833,-9.5833,IE,1613172414,44.78,87,100,27.27
Innisfail,-17.5333,146.0333,AU,1613172339,79.38,81,100,1.92
Bubaque,11.2833,-15.8333,GW,1613172415,78.76,61,1,11.54
Okhotsk,59.3833,143.3,RU,1613172416,13.46,93,100,3.53
Cabedelo,-6.9811,-34.8339,BR,1613172417,77.0,94,90,11.5
Norman Wells,65.282,-126.8329,CA,1613172417,-2.2,71,20,5.75
Pokhara,28.2333,83.9833,NP,1613172419,55.33,43,28,3.62
Cairns,-16.9167,145.7667,AU,1613172419,82.4,74,100,6.91
Pizarro,4.9533,-77.366,CO,1613172420,79.23,87,94,7.67
Homer,59.6425,-151.5483,US,1613172421,35.01,86,90,3.89
Haapiti,-17.5667,-149.8667,PF,1613172422,86.0,62,75,13.8
Chicama,-7.8447,-79.1469,PE,1613172422,73.4,83,84,11.5
Aden,12.7794,45.0367,YE,1613172248,75.56,70,32,11.01
Zhanakorgan,43.9098,67.2495,KZ,1613172424,38.95,77,100,9.19
Egvekinot,66.3167,-179.1667,RU,1613172424,-17.66,84,100,20.8
Port Hedland,-20.3167,118.5667,AU,1613172426,80.6,78,58,4.61
Oranjemund,-28.55,16.4333,NA,1613172427,64.31,88,97,10.07
Pangnirtung,66.1451,-65.7125,CA,1613172428,-7.6,77,20,1.63
Bjørnevatn,69.6672,29.9847,NO,1613172428,1.4,85,90,4.61
Raduzhny,62.0961,77.475,RU,1613172429,-25.67,85,100,4.16
Jumla,29.2747,82.1838,NP,1613172430,37.53,56,53,4.41
Constitución,-35.3333,-72.4167,CL,1613172431,63.63,78,26,11.39
Pangody,65.85,74.4859,RU,1613172432,-26.14,85,100,2.89
Campos dos Goytacazes,-21.75,-41.3,BR,1613172432,76.26,86,100,7.27
Kaduqli,11.0167,29.7167,SD,1613172433,72.91,22,4,7.18
Las Vegas,36.175,-115.1372,US,1613172365,70.0,26,1,6.02
Codajás,-3.8367,-62.0569,BR,1613172434,77.7,94,100,1.34
Tripoli,32.8752,13.1875,LY,1613172279,61.47,45,0,13.62
Māngrol,21.1167,70.1167,IN,1613172436,68.5,48,0,8.48
Paamiut,61.994,-49.6678,GL,1613172437,24.1,91,83,18.84
Cockburn Town,21.4612,-71.1419,TC,1613172437,75.2,83,40,11.5
Atasū,48.6814,71.6433,KZ,1613172438,18.46,95,96,5.75
Simojovel,17.1391,-92.7103,MX,1613172439,74.73,69,25,2.55
Ulagan,50.6321,87.9563,RU,1613172439,-4.2,82,77,1.12
Tres Palos,18.1833,-101.6167,MX,1613172440,82.4,74,40,11.5
Gelemso,8.8167,40.5167,ET,1613172441,63.37,44,35,3.69
Safaga,26.7292,33.9365,EG,1613172442,64.4,36,0,13.8
Lingyuan,41.24,119.4011,CN,1613172442,32.49,94,97,2.91
Wanxian,30.8039,108.3897,CN,1613172444,55.44,68,6,1.92
Verkhnyaya Inta,65.9811,60.3094,RU,1613172444,-18.17,87,100,4.5
Orta Nova,41.3299,15.7107,IT,1613172445,39.2,100,75,3.44
Along,28.1667,94.7667,IN,1613172446,52.23,63,61,1.88
Dustlik,40.5247,68.0358,UZ,1613172446,52.3,64,100,4.18
Cherskiy,68.75,161.3,RU,1613172447,-24.68,78,0,2.75
Amvrosiyivka,47.7935,38.4777,UA,1613172362,19.22,85,100,18.92
Kushima,31.4583,131.2333,JP,1613172449,55.4,94,75,16.11
Caravelas,-17.7125,-39.2481,BR,1613172449,76.28,85,5,5.59
Lima,-12.0432,-77.0282,PE,1613172450,78.01,65,0,9.22
Jining,35.405,116.5814,CN,1613172451,44.37,95,0,6.11
Gijang,35.2442,129.2139,KR,1613172451,39.2,70,0,5.75
Beyneu,45.3167,55.2,KZ,1613172452,36.72,82,39,18.3
Sinnamary,5.3833,-52.95,GF,1613172453,77.95,86,86,15.21
Acapulco de Juárez,16.8634,-99.8901,MX,1613172453,80.6,69,20,12.66
Tanout,14.9709,8.8879,NE,1613172454,69.48,20,0,11.41
Naze,28.3667,129.4833,JP,1613172455,66.2,88,75,20.71
Coquimbo,-29.9533,-71.3436,CL,1613172240,66.2,72,20,10.36
Pahrump,36.2083,-115.9839,US,1613172456,66.99,35,7,1.99
Qandala,11.472,49.8728,SO,1613172457,74.44,39,30,3.36
Vanavara,60.34,102.2797,RU,1613172458,-16.33,88,99,3.56
Alta Floresta,-9.8756,-56.0861,BR,1613172458,74.01,96,100,3.78
Husavik,66.0449,-17.3389,IS,1613172460,35.6,64,20,12.66
Hualmay,-11.0964,-77.6139,PE,1613172461,76.01,65,60,9.98
Sept-Îles,50.2001,-66.3821,CA,1613172320,19.99,53,90,8.05
Montrose,38.4166,-108.2673,US,1613172463,45.0,52,97,11.99
Seymchan,62.8833,152.4333,RU,1613172463,-13.0,87,100,1.21
Jimma,7.6667,36.8333,ET,1613172464,68.2,51,94,1.59
Prnjavor,44.8703,17.6628,BA,1613172465,23.0,80,0,4.61
Broome,42.2506,-75.833,US,1613172465,21.0,45,90,2.53
Mashhad,36.297,59.6062,IR,1613172467,41.0,70,0,4.61
Ancud,-41.8697,-73.8203,CL,1613172468,64.4,55,0,8.05
Rio Grande City,26.3798,-98.8203,US,1613172251,42.01,90,97,5.99
Sarangani,5.4033,125.4636,PH,1613172469,83.32,73,100,8.59
Golspie,57.9727,-3.978,GB,1613172470,28.99,81,50,3.0
Rafai,4.95,23.9167,CF,1613172471,72.19,27,0,1.41
Iskateley,67.6803,53.1512,RU,1613172472,-14.03,87,100,1.05
Wałcz,53.2779,16.4712,PL,1613172473,23.0,88,55,3.0
Batemans Bay,-35.7167,150.1833,AU,1613172473,66.99,76,100,1.99
Salalah,17.0151,54.0924,OM,1613172474,69.8,40,0,5.75
Bathsheba,13.2167,-59.5167,BB,1613172475,78.8,65,20,17.27
Doha,25.2867,51.5333,QA,1613172438,64.4,77,0,6.91
Baoro,5.6667,15.9667,CF,1613172476,68.34,24,0,3.98
Nelson Bay,-32.7167,152.15,AU,1613172477,73.99,94,75,5.75
Chamba,32.5667,76.1333,IN,1613172478,55.4,31,100,7.83
Byron Bay,-28.65,153.6167,AU,1613171731,78.8,65,91,10.36
Adrar,20.5022,-10.0711,MR,1613172479,67.08,19,0,11.48
Almeirim,-1.5233,-52.5817,BR,1613172266,77.76,91,55,4.79
Trat,12.5,102.5,TH,1613172480,69.26,81,0,2.21
San-Pédro,4.7485,-6.6363,CI,1613172482,79.18,89,93,7.67
Baruun-Urt,46.6806,113.2792,MN,1613172483,-3.15,86,98,4.61
Linxia Chengguanzhen,35.6003,103.2064,CN,1613172483,29.84,96,99,1.21
Dauphin,51.1494,-100.0502,CA,1613172484,-20.2,57,1,5.5
Winnemucca,40.973,-117.7357,US,1613172485,50.0,50,75,14.97
Kloulklubed,7.0419,134.2556,PW,1613172485,80.6,89,90,4.61
Takoradze,4.8845,-1.7554,GH,1613172486,80.94,86,12,8.88
Preeceville,51.95,-102.6677,CA,1613172487,-22.11,85,71,1.61
Flinders,-34.5833,150.8552,AU,1613172488,70.0,88,100,8.01
Coyhaique,-45.5752,-72.0662,CL,1613172488,73.4,27,0,9.22
Fortuna,40.5982,-124.1573,US,1613172316,53.01,100,90,3.83
Dingle,10.9995,122.6711,PH,1613172490,76.33,89,80,4.25
Yangcun,39.3639,117.0603,CN,1613172490,37.0,93,100,2.24
Timrå,62.487,17.3257,SE,1613172492,26.01,74,1,6.91
Ayotzintepec,17.6667,-96.1333,MX,1613172492,70.09,85,97,2.24
Arman',59.7,150.1667,RU,1613172493,9.61,86,100,3.02
George Town,5.4112,100.3354,MY,1613172401,80.01,88,20,5.48
Jaru,-10.4389,-62.4664,BR,1613172495,76.37,94,57,1.41
Bonavista,48.6499,-53.1147,CA,1613172495,30.99,93,100,9.22
Aksay,47.26,39.87,RU,1613172390,24.01,74,75,20.13
Norwalk,33.9022,-118.0817,US,1613172497,70.0,37,1,6.91
Arboletes,8.8505,-76.4269,CO,1613172497,80.11,78,94,10.4
Altagracia de Orituco,9.8601,-66.3814,VE,1613172498,74.41,76,48,7.85
Rocha,-34.4833,-54.3333,UY,1613172499,66.83,93,100,5.26
Chipinge,-20.1883,32.6236,ZW,1613172499,64.04,100,100,5.57
Kampot,10.6167,104.1833,KH,1613172500,73.4,94,40,2.3
Lorengau,-2.0226,147.2712,PG,1613172501,84.34,72,95,5.37
Atambua,-9.1061,124.8925,ID,1613172502,77.05,84,46,2.46
Silver City,32.7701,-108.2803,US,1613172502,57.2,21,90,10.36
Samarai,-10.6167,150.6667,PG,1613172503,83.59,69,83,7.85
Valentín Gómez Farías,28.2167,-106.5833,MX,1613172504,67.71,23,8,12.77
Severo-Yeniseyskiy,60.3725,93.0408,RU,1613172505,-20.85,88,100,3.74
Sola,-13.8833,167.55,VU,1613172505,80.96,80,93,11.79
Asten,51.4042,5.7486,NL,1613172506,21.0,82,0,5.01
San Patricio,28.017,-97.5169,US,1613172507,39.2,87,90,17.27
Lillooet,50.6856,-121.942,CA,1613172508,15.01,41,1,10.36
Yumen,40.2833,97.2,CN,1613172509,35.64,69,43,16.96
Kutum,14.2,24.6667,SD,1613172308,61.47,31,6,8.9
Zyryanka,65.75,150.85,RU,1613172510,-28.89,85,79,3.83
Barcelos,41.5388,-8.6151,PT,1613172511,53.6,94,40,8.05
Valleyview,55.0667,-117.2859,CA,1613172512,1.4,60,100,3.44
Nueva Concepción,14.2,-91.3,GT,1613172512,86.0,66,75,9.22
Westport,41.1415,-73.3579,US,1613172513,28.4,34,90,8.05
Chetwayi,10.5333,76.05,IN,1613172514,75.2,88,20,3.44
Poum,-20.2333,164.0167,NC,1613172514,80.19,70,0,7.11
Lahān,26.7296,86.4951,NP,1613172515,60.57,61,36,2.33
Vostok,46.4856,135.8833,RU,1613172516,23.85,99,100,3.85
Annau,37.8876,58.516,TM,1613172517,42.8,81,0,4.61
Georgiyevka,43.0369,74.7114,KZ,1613172517,28.4,100,90,4.47
Tumut,-35.3,148.2167,AU,1613172518,69.8,73,4,8.05
Dubai,25.2582,55.3047,AE,1613172273,66.2,82,46,2.3
Tra Vinh,9.9347,106.3453,VN,1613172520,69.04,92,13,4.7
Dunedin,-45.8742,170.5036,NZ,1613172521,61.0,76,95,23.0
Tucumã,-0.1833,-50.05,BR,1613172521,78.03,90,99,7.58
Caraquet,47.7941,-64.9386,CA,1613172512,24.8,63,64,4.61
Batagay,67.6333,134.6333,RU,1613172523,-17.95,85,13,1.1
Port Blair,11.6667,92.75,IN,1613172524,78.24,77,89,9.66
Kenora,49.8167,-94.4337,CA,1613172524,-16.01,52,75,4.61
Beringovskiy,63.05,179.3167,RU,1613172525,-13.38,88,100,27.96
Buraidah,26.326,43.975,SA,1613172526,59.0,67,0,4.61
Banjar,-8.19,114.9675,ID,1613172526,77.0,88,20,4.61
Belyy Yar,53.6039,91.3903,RU,1613172527,-25.6,75,12,2.24
Khovd,48.0056,91.6419,MN,1613172528,4.21,90,5,1.32
Sovetskiy,61.3614,63.5842,RU,1613172529,-10.03,91,100,4.61
Luena,-11.7833,19.9167,AO,1613172529,61.27,74,0,5.28
Port Hawkesbury,45.6169,-61.3485,CA,1613172530,28.4,86,90,10.36
Menongue,-14.6585,17.691,AO,1613172531,61.52,81,90,2.19
Sedlčany,49.6606,14.4266,CZ,1613172532,10.99,85,43,2.91
Haines Junction,60.7522,-137.5108,CA,1613172533,1.4,42,0,1.79
Guanhães,-18.775,-42.9325,BR,1613172533,67.19,96,100,2.95
Nouadhibou,20.931,-17.0347,MR,1613172535,64.4,77,0,20.71
Erenhot,43.6475,111.9767,CN,1613172536,7.2,89,0,8.25
Taoudenni,22.6783,-3.9836,ML,1613172536,70.92,17,0,14.52
Ballina,-28.8667,153.5667,AU,1613172537,80.6,65,92,6.91
Sitka,57.0531,-135.33,US,1613172538,39.2,26,20,11.5
Rabo de Peixe,37.8,-25.5833,PT,1613172538,60.01,94,40,16.11
Puerto del Rosario,28.5004,-13.8627,ES,1613172302,64.4,77,75,14.97
Surin,14.8818,103.4936,TH,1613172540,68.0,79,4,7.45
Itarema,-2.9248,-39.9167,BR,1613172541,80.24,80,56,12.5
Alofi,-19.0595,-169.9187,NU,1613172541,84.2,79,92,9.22
Tarrafal,15.2833,-23.7667,CV,1613172542,69.8,73,0,24.16
San Jose,37.3394,-121.895,US,1613172275,61.0,58,75,14.97
Acaraú,-2.8856,-40.12,BR,1613172543,80.28,81,78,13.67
Charyshskoye,51.3978,83.5598,RU,1613172545,0.21,84,17,3.13
Camanducaia,-22.7553,-46.1447,BR,1613172546,71.6,88,75,3.44
Umluj,25.0213,37.2685,SA,1613172546,75.85,58,0,7.76
Chirnogeni,43.9,28.2333,RO,1613172547,21.0,87,100,4.0
Tooele,40.5308,-112.2983,US,1613172548,44.6,70,90,6.91
Timbiquí,2.7717,-77.6654,CO,1613172548,77.65,90,87,2.68
São Félix do Xingu,-6.6447,-51.995,BR,1613172549,75.36,93,97,1.74
Wahpeton,46.2652,-96.6059,US,1613172550,-7.6,49,75,5.26
Leshukonskoye,64.8989,45.7622,RU,1613172551,-13.36,90,23,1.77
Tārāpur,19.85,72.7,IN,1613172551,70.93,57,0,3.6
Olafsvik,64.8945,-23.7142,IS,1613172552,39.61,73,85,26.98
Hirara,24.8,125.2833,JP,1613172553,69.8,88,40,13.8
Kamina,-8.7386,24.9906,CD,1613172553,64.92,95,100,3.51
Poya,-21.35,165.15,NC,1613172554,83.12,65,4,2.17
Okha,53.5739,142.9478,RU,1613172555,9.99,96,96,3.29
Gondanglegi,-7.7479,112.0132,ID,1613172556,74.16,89,100,2.59
José Bonifácio,-21.0528,-49.6883,BR,1613172556,71.6,83,75,3.44
Togur,58.3631,82.8265,RU,1613172557,-21.39,87,85,5.32
Saposoa,-6.934,-76.7716,PE,1613172558,80.6,74,40,2.3
Yakovlevo,50.8603,36.4478,RU,1613172558,10.4,79,90,15.66
Abhar,36.1468,49.218,IR,1613172559,39.42,63,0,3.38
Saint-Ambroise,48.5501,-71.3324,CA,1613172560,9.0,85,100,8.05
Pinawa,50.1489,-95.8811,CA,1613172561,-16.13,87,100,2.98
Djenné,13.9061,-4.5533,ML,1613172440,79.84,15,1,8.19
Balabac,7.9868,117.0645,PH,1613172562,79.79,80,100,14.61
Manaus,-3.1019,-60.025,BR,1613172563,78.8,94,40,1.97
Dalnegorsk,44.5604,135.5701,RU,1613172563,30.2,95,59,3.4
Lagunas,-5.2269,-75.6753,PE,1613172565,77.99,93,100,1.23
Moussoro,13.6408,16.4901,TD,1613172566,74.57,19,0,11.39
Bam,29.106,58.357,IR,1613172567,52.59,37,0,0.87
Avera,33.194,-82.5271,US,1613172568,44.6,85,90,5.75
Aitape,-3.1374,142.3475,PG,1613172568,77.25,91,97,10.47
Aquiraz,-3.9014,-38.3911,BR,1613172569,82.4,78,20,8.05
Chapais,49.7834,-74.8492,CA,1613172570,-2.2,78,90,6.91
Karatau,43.1667,70.4667,KZ,1613172570,34.02,92,100,3.58
Issa,53.8705,44.8578,RU,1613172571,35.62,97,100,14.67
Xiangfan,32.0422,112.1448,CN,1613172572,51.39,91,9,5.48
Båtsfjord,70.6345,29.7185,NO,1613172573,14.0,73,0,12.66
São Geraldo do Araguaia,-6.4006,-48.555,BR,1613172483,76.6,93,99,3.22
Severnyy-Kospashskiy,59.0925,57.8008,RU,1613172574,3.0,75,100,1.99
