City,Latitude,Longitude,Country,Date,Max Temperature,Humidity,Cloudiness,Wind Speed
Carnarvon,-24.8667,113.6333,AU,1613188378,87.8,74,90,5.75
Palekastro,35.2,26.25,GR,1613188380,55.0,70,33,1.99
Kahului,20.8947,-156.47,US,1613188380,80.6,54,40,21.85
Dikson,73.5069,80.5464,RU,1613188381,-25.98,87,98,11.39
Thompson,55.7435,-97.8558,CA,1613188382,-34.6,74,1,1.66
New Norfolk,-42.7826,147.0587,AU,1613188382,73.99,40,89,1.99
Jamestown,42.097,-79.2353,US,1613188307,14.0,73,1,4.61
Port Augusta,-32.5,137.7667,AU,1613188384,80.01,53,0,10.36
Ushuaia,-54.8,-68.3,AR,1613188256,57.2,82,75,10.36
Manono,-7.3,27.4167,CD,1613188385,69.75,96,100,2.57
Bredasdorp,-34.5322,20.0403,ZA,1613188386,69.8,78,12,5.75
Richards Bay,-28.783,32.0377,ZA,1613188387,73.87,92,74,4.29
Avarua,-21.2078,-159.775,CK,1613188387,84.2,65,0,5.75
Rikitea,-23.1203,-134.9692,PF,1613188388,79.97,75,4,10.67
Kautokeino,69.0125,23.0412,NO,1613188389,8.78,89,54,2.55
Albany,42.6001,-73.9662,US,1613188390,12.0,55,74,3.96
Port Alfred,-33.5906,26.891,ZA,1613188390,73.99,94,83,5.01
Chui,-33.6971,-53.4616,UY,1613188391,70.32,90,100,10.92
Punta Arenas,-53.15,-70.9167,CL,1613188392,55.0,62,75,5.75
Nouadhibou,20.931,-17.0347,MR,1613188392,60.8,88,0,23.02
Nishihara,26.1842,127.7558,JP,1613188322,71.6,68,75,11.5
Cape Town,-33.9258,18.4232,ZA,1613188273,64.99,88,0,4.61
Nassau,40.7507,-73.5829,US,1613188301,28.99,40,90,4.61
Faanui,-16.4833,-151.75,PF,1613188111,81.45,73,15,11.03
Sur,22.5667,59.5289,OM,1613188396,72.86,49,0,1.77
Sal Rei,16.1833,-22.9167,CV,1613188397,66.2,88,40,14.97
George Town,5.4112,100.3354,MY,1613188122,87.8,62,20,6.91
Saint George,37.1041,-113.5841,US,1613188399,54.0,43,1,5.75
Eureka,40.8021,-124.1637,US,1613188399,51.01,98,100,6.71
Mahébourg,-20.4081,57.7,MU,1613188400,78.8,78,40,12.66
Bentiu,9.2333,29.8333,SS,1613188401,70.7,25,1,5.23
Mataura,-46.1927,168.8643,NZ,1613188402,69.01,63,78,5.01
Busselton,-33.65,115.3333,AU,1613188403,81.9,37,0,2.84
Ferrol,43.4832,-8.2369,ES,1613188404,55.99,82,0,11.5
Lata,40.1629,-8.3327,PT,1613188404,52.0,91,100,1.01
Saskylakh,71.9167,114.0833,RU,1613188405,-26.82,82,83,1.79
Moore,35.3395,-97.4867,US,1613188139,14.0,85,90,12.66
Aklavik,68.2191,-135.0107,CA,1613188406,1.4,78,88,3.44
Bandarbeyla,9.4942,50.8122,SO,1613188407,72.75,73,57,11.79
Vredendal,-31.6683,18.5012,ZA,1613188408,67.44,83,99,3.38
Hilo,19.7297,-155.09,US,1613188408,80.6,57,40,8.05
Upernavik,72.7868,-56.1549,GL,1613188409,-3.24,82,0,8.66
Trelew,-43.249,-65.3051,AR,1613188365,74.5,57,0,18.72
Barrow,71.2906,-156.7887,US,1613188412,-9.4,70,90,4.61
São Filipe,14.8961,-24.4956,CV,1613188413,72.57,61,0,15.52
Ponta do Sol,32.6667,-17.1,PT,1613188413,55.0,72,27,5.01
Atuona,-9.8,-139.0333,PF,1613188414,79.11,79,4,14.79
Kwinana,-32.25,115.7667,AU,1613188417,91.99,27,0,5.75
Yellowknife,62.456,-114.3525,CA,1613188417,-18.0,76,1,4.61
Olinda,-8.0089,-34.8553,BR,1613188213,78.8,73,40,11.5
Coyhaique,-45.5752,-72.0662,CL,1613188419,55.4,62,0,5.48
Salalah,17.0151,54.0924,OM,1613188419,66.2,45,0,4.23
Comodoro Rivadavia,-45.8667,-67.5,AR,1613188365,62.6,88,75,5.75
Hobart,-42.8794,147.3294,AU,1613188223,73.99,59,75,17.27
Flin Flon,54.7682,-101.865,CA,1613188421,-28.35,83,11,1.1
Pangnirtung,66.1451,-65.7125,CA,1613188352,-16.65,82,100,0.13
Lavumisa,-27.31,31.892,SZ,1613188423,71.33,93,100,4.27
Katsuura,35.1333,140.3,JP,1613188423,60.01,62,75,5.75
Constitución,-35.3333,-72.4167,CL,1613188390,58.39,88,40,5.77
Mackay,-21.15,149.2,AU,1613188425,86.0,54,64,13.8
Harper,4.375,-7.7169,LR,1613188425,78.82,89,0,6.11
Urucará,-2.5364,-57.76,BR,1613188426,75.31,96,23,0.58
Cap Malheureux,-19.9842,57.6142,MU,1613188427,80.01,74,6,8.99
Srandakan,-7.9386,110.2506,ID,1613188428,83.7,73,26,7.05
Qasigiannguit,68.8193,-51.1922,GL,1613188372,12.2,79,40,4.61
Bodden Town,19.2833,-81.25,KY,1613188429,79.0,83,20,8.05
Cidreira,-30.1811,-50.2056,BR,1613188309,74.75,80,100,15.73
Mayo,38.8876,-76.5119,US,1613188430,30.99,64,90,4.61
Huatusco,19.15,-96.95,MX,1613188431,57.02,94,99,1.86
Guerrero Negro,27.9769,-114.0611,MX,1613188389,59.49,82,23,17.05
Tiksi,71.6872,128.8694,RU,1613188433,-10.17,91,67,4.68
Meulaboh,4.1363,96.1285,ID,1613188433,85.71,65,0,2.48
Chapais,49.7834,-74.8492,CA,1613188434,-5.8,77,90,6.91
Independência,-5.3964,-40.3086,BR,1613188435,74.7,79,32,5.55
Saint-Philippe,-21.3585,55.7679,RE,1613188435,82.4,65,0,17.27
Goodlettsville,36.3231,-86.7133,US,1613188436,28.99,81,100,3.0
Klaksvík,62.2266,-6.589,FO,1613188437,37.4,65,90,23.02
Muros,42.7762,-9.0603,ES,1613188437,55.99,85,100,10.0
Mocuba,-16.8392,36.9856,MZ,1613188438,72.43,96,81,3.83
Abasha,42.2096,42.2211,GE,1613188439,39.2,100,75,11.5
Chatrapur,19.35,84.9833,IN,1613188440,77.65,48,1,5.82
San Patricio,28.017,-97.5169,US,1613188441,35.6,93,90,13.8
Ghanzi,-21.5667,21.7833,BW,1613188441,63.45,91,68,5.59
Geraldton,-28.7667,114.6,AU,1613188442,91.4,40,40,21.85
Longyearbyen,78.2186,15.6401,SJ,1613188443,12.2,67,75,16.11
Vaini,-21.2,-175.2,TO,1613188444,86.0,74,75,8.05
Chokurdakh,70.6333,147.9167,RU,1613188276,-21.39,73,0,3.67
Kloulklubed,7.0419,134.2556,PW,1613188445,84.2,74,75,9.22
Nome,64.5011,-165.4064,US,1613188446,30.2,69,90,19.57
Ketchikan,55.3422,-131.6461,US,1613188447,35.6,34,1,18.41
Kruisfontein,-34.0033,24.7314,ZA,1613188327,73.99,92,99,1.01
Saurimo,-9.6608,20.3916,AO,1613188448,63.28,95,96,4.54
Ghanaur,30.3322,76.6072,IN,1613188449,64.2,37,100,4.16
Teeli,51.0333,90.2333,RU,1613188450,-5.6,86,0,0.78
Birao,10.2849,22.7882,CF,1613188450,67.05,26,17,4.29
Broken Hill,-31.95,141.4333,AU,1613188452,75.2,31,0,14.97
East London,-33.0153,27.9116,ZA,1613188452,69.8,94,20,3.44
Hermanus,-34.4187,19.2345,ZA,1613188453,72.0,81,0,8.01
Caohai,26.8661,104.2841,CN,1613188454,46.94,80,92,1.14
Guiratinga,-16.3494,-53.7583,BR,1613188454,69.94,93,100,5.64
Semporna,4.4818,118.6112,MY,1613188456,82.4,78,20,9.89
Ambilobe,-13.2,49.05,MG,1613188324,75.4,90,91,3.15
Avera,33.194,-82.5271,US,1613188458,42.8,86,90,9.22
Bydgoszcz,53.1235,18.0076,PL,1613188458,27.0,86,75,8.05
Puerto Ayora,-0.7393,-90.3518,EC,1613188320,75.99,95,94,1.01
Bluff,-46.6,168.3333,NZ,1613188460,69.01,63,53,5.01
College,64.8569,-147.8028,US,1613188322,1.0,77,1,4.61
Puro,12.4841,123.3827,PH,1613188392,82.71,76,10,8.63
Airai,-8.9266,125.4092,TL,1613188462,72.16,92,72,2.28
Castro,-24.7911,-50.0119,BR,1613188462,60.21,94,19,2.26
Concepción,-36.827,-73.0498,CL,1613188391,59.0,100,75,6.91
Namatanai,-3.6667,152.4333,PG,1613188464,84.6,71,61,7.34
Hegang,47.4,130.3667,CN,1613188465,29.91,91,100,2.53
Mehamn,71.0357,27.8492,NO,1613188466,21.97,96,76,3.49
Beringovskiy,63.05,179.3167,RU,1613188467,-9.65,89,100,29.39
Samarai,-10.6167,150.6667,PG,1613188467,84.2,67,46,10.76
Kaitangata,-46.2817,169.8464,NZ,1613188469,66.99,74,87,8.01
Conway,35.0887,-92.4421,US,1613188469,27.0,74,90,14.97
Ushtobe,45.2514,77.9838,KZ,1613188470,27.48,98,100,10.42
Udachny,66.4167,112.4,RU,1613188471,-17.86,78,97,1.79
Hasaki,35.7333,140.8333,JP,1613188471,63.0,51,20,8.05
Half Moon Bay,37.4636,-122.4286,US,1613188385,54.0,87,90,8.05
Esna,25.2934,32.554,EG,1613188026,55.4,58,0,3.44
Provideniya,64.3833,-173.3,RU,1613188474,1.02,90,100,28.07
Predivinsk,57.0669,93.4378,RU,1613188475,-13.56,86,97,4.92
Philadelphia,39.9523,-75.1638,US,1613188315,28.99,46,90,6.91
Kavieng,-2.5744,150.7967,PG,1613188478,83.97,75,46,9.06
Dunda,-8.1167,34.25,TZ,1613188479,63.97,95,100,0.72
Smoky Lake,54.1169,-112.4686,CA,1613188479,-4.0,77,99,1.77
Kupiškis,55.8333,24.9667,LT,1613188480,3.87,93,83,8.3
Mar del Plata,-38.0023,-57.5575,AR,1613188481,69.8,94,90,12.66
Saint Paul Harbor,57.79,-152.4072,US,1613188481,35.6,69,90,20.71
Qaanaaq,77.484,-69.3632,GL,1613188482,-2.38,70,0,5.59
Yaqui,27.3667,-110.1667,MX,1613188483,59.14,62,51,3.96
Aquiraz,-3.9014,-38.3911,BR,1613188483,82.4,78,40,8.05
Onega,63.9061,38.1404,RU,1613188484,-4.4,90,95,8.12
Tonj,7.2737,28.6822,SS,1613188203,70.74,24,0,4.7
Puerto Madryn,-42.7692,-65.0385,AR,1613188477,71.82,67,91,23.0
Chato,-2.6378,31.7669,TZ,1613188487,66.49,88,98,4.34
Kapaa,22.0752,-159.319,US,1613188488,75.2,60,1,8.05
Saint-François,46.4154,3.9054,FR,1613188489,21.99,73,0,3.44
Awallan,17.9244,121.913,PH,1613188489,80.49,62,66,2.93
Lebu,-37.6167,-73.65,CL,1613188262,57.65,84,0,14.67
Anadyr,64.75,177.4833,RU,1613188491,-13.0,70,40,11.18
Murray Bridge,-35.1167,139.2667,AU,1613188491,70.0,61,50,13.09
Taseyevo,57.2169,94.8978,RU,1613188492,-11.15,86,100,5.1
Stornoway,58.2093,-6.3865,GB,1613188493,35.6,55,100,16.11
Olafsvik,64.8945,-23.7142,IS,1613188494,39.99,72,100,26.42
Poum,-20.2333,164.0167,NC,1613188494,81.1,71,1,10.13
Matagami,49.7502,-77.6328,CA,1613188386,-5.8,77,90,9.22
Ruska Poliana,49.417,31.9201,UA,1613188496,7.74,94,100,15.55
Maniitsoq,65.4167,-52.9,GL,1613188496,14.45,88,13,11.97
Kampot,10.6167,104.1833,KH,1613188497,84.2,88,40,5.75
Coahuayana Viejo,18.7333,-103.6833,MX,1613188498,62.98,80,16,3.49
Jinchang,38.4953,102.1739,CN,1613188499,50.65,37,14,9.35
Pouembout,-21.1333,164.9,NC,1613188500,83.32,67,30,5.5
Seoul,37.5683,126.9778,KR,1613188262,53.6,40,0,4.61
Khatanga,71.9667,102.5,RU,1613188502,-25.92,86,98,8.39
Caravelas,-17.7125,-39.2481,BR,1613188266,74.75,87,94,4.85
Butaritari,3.0707,172.7902,KI,1613188504,81.41,82,2,10.89
Nanga Eboko,4.6833,12.3667,CM,1613188505,67.55,95,46,1.41
Cherskiy,68.75,161.3,RU,1613188505,-21.68,81,0,0.43
Novikovo,51.1537,37.8879,RU,1613188506,8.4,91,100,18.32
Saint-Joseph,-21.3667,55.6167,RE,1613188507,82.4,65,0,17.27
Lerwick,60.1545,-1.1494,GB,1613188508,37.4,56,90,27.63
Letnyaya Stavka,45.4306,43.4472,RU,1613188509,31.64,88,100,21.77
Bengkulu,-3.8004,102.2655,ID,1613188510,85.89,64,35,6.4
Biltine,14.5333,20.9167,TD,1613188510,70.21,23,0,16.33
Adrar,20.5022,-10.0711,MR,1613188511,62.28,23,0,10.94
Puerto Baquerizo Moreno,-0.9,-89.6,EC,1613188348,77.04,87,92,9.46
Ürümqi,43.801,87.6005,CN,1613188512,15.8,86,40,2.24
Ilo,-17.6394,-71.3375,PE,1613188513,71.01,79,0,9.71
Torbay,47.6666,-52.7314,CA,1613188514,30.0,86,90,28.77
Sémbé,1.6481,14.5806,CG,1613188515,73.78,79,63,4.09
Naze,28.3667,129.4833,JP,1613188516,69.8,83,75,19.57
Port Elizabeth,-33.918,25.5701,ZA,1613188517,73.4,100,90,11.5
Leningradskiy,69.3833,178.4167,RU,1613188518,-19.8,84,100,5.66
Ancud,-41.8697,-73.8203,CL,1613188518,55.0,76,0,6.91
Talnakh,69.4865,88.3972,RU,1613188519,-21.05,86,100,2.46
Esperance,-33.8667,121.9,AU,1613188520,78.8,38,0,5.75
Gaza,31.5,34.4667,PS,1613188521,52.0,100,0,1.01
Ségou,13.4317,-6.2157,ML,1613188521,74.48,18,52,8.79
Robāţ Karīm,35.4846,51.0829,IR,1613188522,46.4,64,0,9.22
Nyimba,-14.5566,30.8149,ZM,1613188523,66.78,96,100,2.84
Kieta,-6.2167,155.6333,PG,1613188523,83.19,78,86,11.99
Pevek,69.7008,170.3133,RU,1613188524,-18.94,89,100,7.61
Bam,29.106,58.357,IR,1613188525,59.59,29,0,2.46
Caconda,-13.7333,15.0667,AO,1613188526,52.75,69,4,3.87
Shar,49.5886,81.0453,KZ,1613188526,1.67,92,0,1.72
Robertsport,6.7533,-11.3686,LR,1613188527,80.01,86,65,8.52
Nikolskoye,59.7035,30.7861,RU,1613188528,3.0,85,75,2.35
Vila Velha,-20.3297,-40.2925,BR,1613188528,77.0,83,0,5.75
Charters Towers,-20.1,146.2667,AU,1613188529,89.17,42,56,3.06
Garoua,9.3,13.4,CM,1613188530,67.5,23,73,1.07
Sisimiut,66.9395,-53.6735,GL,1613188530,9.64,92,79,2.3
Araouane,18.9048,-3.5265,ML,1613188532,70.41,17,0,9.24
Dubbo,-32.25,148.6167,AU,1613188459,82.4,47,65,14.97
Alofi,-19.0595,-169.9187,NU,1613188533,86.0,70,66,8.05
Batagay,67.6333,134.6333,RU,1613188328,-10.19,87,0,0.54
Wagar,16.1525,36.2032,SD,1613188535,65.98,85,0,6.24
Rocha,-34.4833,-54.3333,UY,1613188536,68.11,94,100,6.8
Mount Gambier,-37.8333,140.7667,AU,1613188536,66.2,59,90,13.8
Hope,33.6671,-93.5916,US,1613188535,32.0,68,29,4.0
Iskateley,67.6803,53.1512,RU,1613188538,-16.87,88,78,2.21
Gangāpur,26.4833,76.7167,IN,1613188305,69.35,30,4,4.23
Ahipara,-35.1667,173.1667,NZ,1613188540,71.01,59,0,3.09
Lüderitz,-26.6481,15.1594,NA,1613188540,62.98,88,26,7.78
Evensk,61.95,159.2333,RU,1613188541,-0.42,80,0,4.59
Kununurra,-15.7667,128.7333,AU,1613188542,95.0,55,55,10.36
Vestmannaeyjar,63.4427,-20.2734,IS,1613188542,42.06,89,100,46.95
Zyryanka,65.75,150.85,RU,1613188543,-21.08,86,16,4.38
Bathsheba,13.2167,-59.5167,BB,1613188544,77.0,69,40,16.11
Myitkyina,25.3833,97.4,MM,1613188545,80.53,31,0,1.48
Pangai,-19.8,-174.35,TO,1613188546,84.2,79,75,4.61
Sabang,5.8933,95.3214,ID,1613188546,83.35,76,13,13.42
Kathmandu,27.7167,85.3167,NP,1613188420,57.2,77,40,1.07
Coquimbo,-29.9533,-71.3436,CL,1613188385,60.8,88,0,6.91
Palau,7.503,134.621,PW,1613188548,84.2,74,75,9.22
Clyde River,70.4692,-68.5914,CA,1613188549,-0.4,85,99,21.85
Heihe,50.2441,127.4902,CN,1613188550,21.2,49,0,8.95
Laas,46.6166,10.7002,IT,1613188551,12.2,85,75,6.91
Fortuna,40.5982,-124.1573,US,1613188552,51.01,100,90,4.14
Cayenne,4.9333,-52.3333,GF,1613188552,77.0,100,75,3.44
Kumul,42.8,93.45,CN,1613188554,41.4,58,0,1.77
Tra Vinh,9.9347,106.3453,VN,1613188555,84.43,54,9,8.34
Yar-Sale,66.8333,70.8333,RU,1613188556,-19.1,87,99,3.47
Tuktoyaktuk,69.4541,-133.0374,CA,1613188307,-7.6,77,75,6.91
San Angelo,31.4638,-100.437,US,1613188433,23.0,93,90,10.36
Kangaatsiaq,68.3065,-53.4641,GL,1613188558,6.17,88,0,6.93
São João da Barra,-21.6403,-41.0511,BR,1613188559,76.6,87,100,13.62
Lagoa,39.05,-27.9833,PT,1613188559,59.68,80,100,34.09
Pangoa,-12.1167,-73.0,PE,1613188560,68.94,96,100,1.86
Kesova Gora,57.5836,37.2922,RU,1613188561,2.77,92,100,21.65
Raudeberg,61.9875,5.1352,NO,1613188561,28.99,37,0,12.57
Paamiut,61.994,-49.6678,GL,1613188562,24.55,92,95,21.5
Ilulissat,69.2167,-51.1,GL,1613188563,12.2,79,40,4.61
Porto-Novo,6.4965,2.6036,BJ,1613188275,79.86,88,39,6.93
Magán,39.9683,-3.931,ES,1613188565,44.01,81,100,1.01
Kommunisticheskiy,61.6789,64.4819,RU,1613188566,-9.45,91,100,3.36
Astoria,46.1879,-123.8313,US,1613188568,33.8,86,90,12.66
Srednekolymsk,67.45,153.6833,RU,1613188569,-20.79,84,0,6.02
Vao,-22.6667,167.4833,NC,1613188569,79.45,74,14,7.61
Waddān,29.1614,16.139,LY,1613188570,52.11,49,0,8.99
Pergamino,-33.89,-60.5736,AR,1613188571,69.01,86,9,1.01
Beidao,34.5686,105.8933,CN,1613188571,37.99,62,100,1.01
Zhigansk,66.7697,123.3711,RU,1613188572,-7.42,90,100,12.17
Kargasok,59.0556,80.8572,RU,1613188573,-14.15,88,100,6.26
Bubaque,11.2833,-15.8333,GW,1613188574,76.87,65,0,8.79
Fairbanks,64.8378,-147.7164,US,1613188290,1.0,92,1,2.39
Muisne,0.6,-80.0333,EC,1613188575,77.2,83,100,1.66
Norman Wells,65.282,-126.8329,CA,1613188576,-14.8,76,20,3.44
Borda da Mata,-22.2742,-46.1653,BR,1613188577,68.0,96,100,1.77
Zhangjiakou Shi Xuanhua Qu,40.6103,115.0447,CN,1613188578,46.22,46,100,1.97
Murgab,37.4966,61.9714,TM,1613188579,39.2,87,0,4.61
Maridi,4.9158,29.4742,SS,1613188580,69.55,27,35,2.62
Seddon,-37.8068,144.8916,AU,1613188581,70.0,63,90,14.97
Lavrentiya,65.5833,-171.0,RU,1613188581,-4.97,89,100,17.02
Prainha,-1.8,-53.48,BR,1613188582,75.16,93,100,4.27
Alice Springs,-23.7,133.8833,AU,1613188288,87.01,94,90,9.22
San Cristobal,7.7669,-72.225,VE,1613188583,66.65,72,95,1.36
Fort Nelson,58.8053,-122.7002,CA,1613188584,-9.4,77,1,2.3
Hof,50.3167,11.9167,DE,1613188585,10.99,92,79,5.79
Morant Bay,17.8815,-76.4093,JM,1613188585,80.6,65,20,21.85
Katiuzhanka,50.806,30.1376,UA,1613188586,8.6,78,90,17.9
Kiryat Gat,31.61,34.7642,IL,1613188587,52.0,100,0,1.01
Haapiti,-17.5667,-149.8667,PF,1613188587,80.6,74,75,20.71
Grindavik,63.8424,-22.4338,IS,1613188588,41.0,81,75,40.29
Iqaluit,63.7506,-68.5145,CA,1613188589,-7.6,71,1,7.36
Māngrol,21.1167,70.1167,IN,1613188589,73.44,47,8,8.32
Narsaq,60.9167,-46.05,GL,1613188590,42.8,31,75,29.93
Sechura,-5.5569,-80.8222,PE,1613188591,77.27,70,90,13.02
Karakol,42.4907,78.3936,KG,1613188592,32.49,82,98,0.6
Mēga,4.05,38.3,ET,1613188592,59.31,66,31,5.75
Shubarkuduk,49.1447,56.4872,KZ,1613188593,24.08,94,100,15.35
Dulce Nombre de Culmí,15.1,-85.5333,HN,1613188594,71.6,73,20,0.85
Nanortalik,60.1432,-45.2371,GL,1613188595,37.04,75,100,8.66
Port Macquarie,-31.4333,152.9167,AU,1613188402,73.4,88,90,8.05
Vuktyl,63.8567,57.3094,RU,1613188597,-18.2,87,43,4.29
Bessemer,33.4018,-86.9544,US,1613188550,39.0,100,90,9.22
Broome,42.2506,-75.833,US,1613188599,14.0,57,90,6.91
Talcahuano,-36.7167,-73.1167,CL,1613188599,59.0,100,75,6.91
Tezu,27.9167,96.1667,IN,1613188600,79.56,17,27,3.85
Santiago del Estero,-27.7951,-64.2615,AR,1613188601,70.0,90,86,4.0
Calbuco,-41.768,-73.1273,CL,1613188505,51.8,87,0,4.61
Waipawa,-41.4122,175.5153,NZ,1613188602,68.0,56,38,16.11
Umluj,25.0213,37.2685,SA,1613188603,72.77,58,0,9.75
Pisco,-13.7,-76.2167,PE,1613188603,73.4,73,0,8.05
Okha,53.5739,142.9478,RU,1613188604,17.65,96,100,3.91
Ambanja,-13.6833,48.45,MG,1613188605,78.8,86,75,2.3
Severo-Kuril'sk,50.6789,156.125,RU,1613188606,28.8,94,100,9.28
Newtownards,54.5924,-5.6909,GB,1613188606,33.8,69,20,19.57
Saint-Ambroise,48.5501,-71.3324,CA,1613188607,7.0,92,100,6.91
Mudgee,-32.5943,149.5871,AU,1613188449,80.01,78,75,3.44
Shakhun'ya,57.6758,46.6114,RU,1613188608,5.68,95,100,14.36
Novopokrovka,49.8425,36.5477,UA,1613188609,8.6,78,75,15.66
Paulo Afonso,-9.4061,-38.2147,BR,1613188610,72.82,80,31,8.1
Conde,-7.2597,-34.9075,BR,1613188611,75.2,100,90,5.75
Itupiranga,-5.1347,-49.3267,BR,1613188611,74.5,96,100,3.27
Bestöbe,52.4994,73.0975,KZ,1613188612,6.69,94,57,5.99
Sicamous,50.8331,-118.9856,CA,1613188613,5.0,72,32,1.14
San Quintín,30.4833,-115.95,MX,1613188614,56.48,75,2,14.14
Atherton,53.5237,-2.4935,GB,1613188564,28.99,54,98,7.0
Sumenep,-7.0167,113.8667,ID,1613188615,84.63,73,100,7.74
Catalina Foothills,32.2979,-110.9187,US,1613188616,57.99,47,20,13.8
Mount Isa,-20.7333,139.5,AU,1613188617,95.0,36,87,5.75
Uruguaiana,-29.7547,-57.0883,BR,1613188618,73.4,83,40,9.22
Balagansk,54.0103,103.0544,RU,1613188619,-10.21,87,98,3.91
Hithadhoo,-0.6,73.0833,MV,1613188620,82.49,73,99,12.01
Petropavlovsk-Kamchatskiy,53.0452,158.6483,RU,1613188621,24.8,46,79,1.43
Banda Aceh,5.5577,95.3222,ID,1613188623,86.41,62,22,5.14
Punta Gorda,26.9298,-82.0454,US,1613188624,73.0,100,1,3.44
Aransas Pass,27.9095,-97.15,US,1613188469,37.99,81,90,12.66
Codajás,-3.8367,-62.0569,BR,1613188625,75.33,97,100,1.68
Trebukhiv,50.4843,30.903,UA,1613188626,9.0,85,75,11.18
Bethel,41.3712,-73.414,US,1613188627,28.4,33,90,3.44
San Fernando,15.0286,120.6898,PH,1613188518,82.4,69,75,6.91
Omsukchan,62.5333,155.8,RU,1613188628,-12.28,85,16,5.41
Kedrovyy,56.1667,91.8167,RU,1613188629,-18.4,76,0,2.24
Arraial do Cabo,-22.9661,-42.0278,BR,1613188630,76.01,88,100,16.42
Quatre Cocos,-20.2078,57.7625,MU,1613188631,80.01,78,40,12.66
Icatu,-2.7758,-44.0658,BR,1613188632,80.6,94,40,2.3
Ngawen,-7.0032,111.3129,ID,1613188633,85.55,70,88,9.01
Opportunity,47.6499,-117.2399,US,1613188633,19.4,32,90,10.36
Neuquén,-38.9516,-68.0591,AR,1613188634,77.0,50,0,2.3
Krasnoarmeysk,51.0239,45.6969,RU,1613188635,34.0,89,100,1.99
Marzuq,14.4,46.4667,YE,1613188636,57.74,34,13,1.48
Mujiayingzi,42.1167,118.7833,CN,1613188637,39.83,63,76,2.73
Marawi,7.9986,124.2928,PH,1613188637,84.0,80,54,5.01
De Aar,-30.6497,24.0123,ZA,1613188638,71.69,54,93,3.56
Grand Gaube,-20.0064,57.6608,MU,1613188639,80.01,73,20,8.99
Lawrenceburg,38.0373,-84.8966,US,1613188640,28.99,74,90,5.75
Hualmay,-11.0964,-77.6139,PE,1613188641,72.81,68,65,7.85
Korla,41.7597,86.1469,CN,1613188641,41.0,60,25,5.08
Øksfjord,70.2396,22.3479,NO,1613188642,26.6,68,40,9.22
La Macarena,2.1837,-73.7849,CO,1613188643,73.81,68,99,2.37
Bambous Virieux,-20.3428,57.7575,MU,1613188643,80.01,78,40,12.66
Yulara,-25.2406,130.9889,AU,1613188644,71.6,64,90,17.27
Xinzhi,36.4989,111.7047,CN,1613188645,55.22,40,100,2.68
Dessie,11.1333,39.6333,ET,1613188646,50.85,62,77,1.01
Payson,40.0444,-111.7321,US,1613188646,41.0,70,90,10.36
Sarangani,5.4033,125.4636,PH,1613188647,82.63,79,91,11.12
Rhodes,36.4408,28.2225,GR,1613188648,57.2,44,20,9.22
Kuandian,40.7286,124.7847,CN,1613188648,38.32,80,100,2.1
Te Anau,-45.4167,167.7167,NZ,1613188649,67.68,38,57,8.23
Palimbang,6.2106,124.1894,PH,1613188650,85.46,68,82,4.63
Makakilo City,21.3469,-158.0858,US,1613188448,78.8,61,1,6.91
Yeppoon,-23.1333,150.7333,AU,1613188651,91.4,31,25,4.61
Tonneins,44.3921,0.3124,FR,1613188652,39.2,100,90,5.75
Verkhnetulomskiy,68.6073,31.7962,RU,1613188653,-22.0,76,20,0.74
Boyolangu,-8.1181,111.8935,ID,1613188653,83.97,72,99,6.29
Baykit,61.67,96.37,RU,1613188654,-15.83,83,98,1.88
Zemio,5.0314,25.1361,CF,1613188655,63.75,36,69,1.07
Atkinson,42.8384,-71.147,US,1613188656,19.4,38,75,8.05
Chimoré,-16.9833,-65.1333,BO,1613188658,69.57,87,64,1.92
Takoradze,4.8845,-1.7554,GH,1613188659,80.13,88,14,9.44
Gornyy,55.1153,83.9059,RU,1613188659,-16.74,87,89,4.41
Dublin,37.7021,-121.9358,US,1613188526,53.01,82,1,3.74
Sitka,57.0531,-135.33,US,1613188661,37.4,28,20,6.91
Scarborough,54.2797,-0.4044,GB,1613188482,30.0,66,89,3.0
Maturin,9.75,-63.1767,VE,1613188662,70.74,97,17,5.1
Ostrovnoy,68.0531,39.5131,RU,1613188663,-0.26,91,98,5.91
Yerbogachën,61.2767,108.0108,RU,1613188664,-18.4,86,73,3.56
Ixtapa,20.7,-105.2,MX,1613188665,69.8,78,1,3.44
Hong Kong,22.2855,114.1577,HK,1613188488,71.01,71,79,13.09
Oodweyne,9.4092,45.064,SO,1613188666,61.07,33,100,4.45
Santa Rosa,14.3122,121.1114,PH,1613188667,81.0,83,90,4.61
Chilmāri,25.5559,89.6715,BD,1613188668,76.03,37,0,2.93
Great Yarmouth,52.6083,1.7305,GB,1613188668,30.0,69,1,11.5
Monroe,43.1501,-77.6831,US,1613188669,16.0,85,90,4.61
Beloha,-25.1667,45.05,MG,1613188670,76.12,73,98,11.72
Vila Franca do Campo,37.7167,-25.4333,PT,1613188671,61.0,88,40,18.41
Madang,-5.2246,145.7966,PG,1613188518,83.48,82,99,6.6
Huarmey,-10.0681,-78.1522,PE,1613188672,73.06,72,93,6.89
Vila,42.0304,-8.1588,PT,1613188673,44.01,94,100,1.01
Raja,8.4596,25.678,SS,1613188674,64.13,29,1,1.48
Rio Grande,-32.035,-52.0986,BR,1613188675,69.01,96,100,12.44
Palmer,42.1584,-72.3287,US,1613188675,23.0,49,90,2.82
Bali,-8.5,115.0,ID,1613188677,86.0,70,20,10.36
Arman',59.7,150.1667,RU,1613188677,14.31,86,100,1.05
Arrondissement de Beaune,47.0833,4.75,FR,1613188678,23.0,68,0,10.36
San Andrés,12.5847,-81.7006,CO,1613188553,78.8,78,20,6.91
Amapá,1.0,-52.0,BR,1613188679,72.63,98,100,2.82
Lorengau,-2.0226,147.2712,PG,1613188680,82.31,76,99,6.96
Puerto Escondido,15.85,-97.0667,MX,1613188382,78.8,78,40,3.44
Luganville,-15.5333,167.1667,VU,1613188682,84.18,69,34,11.52
Mamit,23.9333,92.4833,IN,1613188578,66.2,63,20,1.83
Bambanglipuro,-7.95,110.2833,ID,1613188683,83.59,73,31,7.36
Manga,11.6636,-1.0731,BF,1613188684,72.45,18,0,7.61
Praia,14.9215,-23.5087,CV,1613188684,69.8,73,0,21.85
Chimbote,-9.0853,-78.5783,PE,1613188685,71.98,75,47,5.5
Hearst,49.6835,-83.6665,CA,1613188686,-16.6,69,51,4.61
Bayjī,34.9311,43.487,IQ,1613188687,53.67,53,42,0.98
Maumere,-8.6199,122.2111,ID,1613188689,83.88,70,100,1.03
Ribeira Grande,38.5167,-28.7,PT,1613188690,60.89,78,100,30.78
Shingū,33.7333,135.9833,JP,1613188690,62.6,59,75,9.22
Port Keats,-14.25,129.55,AU,1613188691,89.76,61,45,9.4
Saldanha,-33.0117,17.9442,ZA,1613188692,60.8,88,0,3.44
Sesheke,-17.4759,24.2968,ZM,1613188692,65.48,98,100,3.09
Oil City,41.4339,-79.7064,US,1613188693,19.99,73,20,5.75
Berbera,10.4396,45.0143,SO,1613188694,73.31,69,64,3.22
Cabo San Lucas,22.8909,-109.9124,MX,1613188562,63.0,82,1,14.97
Levice,48.2156,18.6071,SK,1613188696,16.0,66,0,6.17
Gander,48.9682,-54.5906,CA,1613188696,26.6,80,90,17.27
Mushie,-3.0167,16.9,CD,1613188697,72.68,92,58,2.26
Safaga,26.7292,33.9365,EG,1613188698,59.0,55,0,9.22
Borisoglebsk,51.3671,42.0849,RU,1613188698,21.99,88,100,13.38
Paita,-5.0892,-81.1144,PE,1613188699,76.26,75,99,11.03
Aljezur,37.3191,-8.8033,PT,1613188700,50.5,73,81,4.52
Benghazi,32.1167,20.0667,LY,1613188700,56.57,72,0,5.61
Methóni,36.8197,21.7049,GR,1613188701,52.0,81,18,3.44
Rovaniemi,66.5,25.7167,FI,1613188518,17.6,73,0,9.22
Aktobe,50.2797,57.2072,KZ,1613188624,23.0,68,0,8.95
Nagato,34.3833,131.2,JP,1613188703,54.0,76,75,8.05
Rockland,41.1668,-74.0496,US,1613188689,26.6,36,90,3.44
Wattegama,6.7989,81.4808,LK,1613188705,80.6,89,0,3.44
Grenå,56.4158,10.8783,DK,1613188705,10.4,92,0,3.44
Bougouni,11.417,-7.479,ML,1613188706,73.06,20,0,3.76
Misawa,40.6836,141.3597,JP,1613188707,35.6,69,0,3.44
Bambari,5.768,20.6757,CF,1613188707,67.8,25,38,2.53
Denpasar,-8.65,115.2167,ID,1613188575,86.0,70,20,10.36
Karratha,-20.7377,116.8463,AU,1613188709,85.32,57,32,13.47
Jacareacanga,-6.2222,-57.7528,BR,1613188710,74.12,95,83,0.49
Port Lincoln,-34.7333,135.8667,AU,1613188710,68.79,60,20,10.98
Shaunavon,49.6501,-108.4181,CA,1613188712,-18.4,69,100,6.91
Palauig,15.435,119.9045,PH,1613188712,80.74,69,18,8.25
Jhābua,22.7667,74.6,IN,1613188713,78.66,18,0,6.46
Kibaya,-5.3,36.5667,TZ,1613188714,59.61,100,100,2.57
Kokologo,12.1897,-1.8856,BF,1613188714,71.6,24,0,2.3
Mandera,3.9366,41.867,KE,1613188715,74.08,66,16,5.44
Mercedes,-34.6515,-59.4307,AR,1613188716,66.99,99,100,1.01
Norrköping,58.5942,16.1826,SE,1613188717,14.0,79,0,6.91
Liberal,37.0431,-100.921,US,1613188718,6.8,85,90,11.5
Lompoc,34.6391,-120.4579,US,1613188718,51.8,87,1,10.36
Baraboo,43.4711,-89.7443,US,1613188434,-2.0,54,75,9.22
Saint-Leu,-21.15,55.2833,RE,1613188721,80.01,62,2,6.44
Haines Junction,60.7522,-137.5108,CA,1613188722,-14.8,84,0,1.14
Piteå,65.3172,21.4794,SE,1613188723,17.6,93,20,4.61
Amboasary,-25.0333,46.3833,MG,1613188724,77.0,88,40,11.5
Berezovyy,51.6667,135.7,RU,1613188725,23.11,89,11,1.48
Istok,42.7808,20.4875,XK,1613188726,19.4,58,0,9.22
Nioro,13.35,-15.75,GM,1613188726,74.57,16,0,8.21
Viedma,-40.8135,-62.9967,AR,1613188727,69.01,86,100,1.01
Sehore,23.2,77.0833,IN,1613188728,64.4,63,0,4.61
Kastamonu Province,41.5,33.6667,TR,1613188728,22.19,89,25,8.72
Mossamedes,-15.1961,12.1522,AO,1613188729,71.91,78,23,2.13
Swellendam,-34.0226,20.4417,ZA,1613188730,69.8,78,98,5.75
Keti Bandar,24.1447,67.4497,PK,1613188730,74.68,45,0,7.74
Kampil,27.6167,79.2833,IN,1613188731,66.13,43,0,3.15
Yumen,40.2833,97.2,CN,1613188645,44.29,50,29,20.11
Prattville,32.464,-86.4597,US,1613188622,46.4,100,90,3.76
Port Hedland,-20.3167,118.5667,AU,1613188734,89.6,58,49,11.5
Anshun,26.25,105.9333,CN,1613188735,52.74,86,97,7.49
Garden City,42.3256,-83.331,US,1613188736,23.0,79,90,9.22
Tasiilaq,65.6145,-37.6368,GL,1613188737,32.0,74,90,40.29
Puerto del Rosario,28.5004,-13.8627,ES,1613188587,64.4,77,75,18.41
Little Current,45.9793,-81.9248,CA,1613188739,3.2,47,20,4.61
Margate,51.3813,1.3862,GB,1613188740,28.99,53,2,7.0
Nambucca Heads,-30.65,153.0,AU,1613188741,77.0,78,90,5.75
Corn Island,12.1694,-83.0418,NI,1613188742,79.21,76,44,13.62
Vostok,46.4856,135.8833,RU,1613188742,28.94,96,100,4.9
Lixouri,38.2019,20.4314,GR,1613188743,52.21,68,47,4.0
Panabá,21.2833,-88.2667,MX,1613188744,73.94,87,47,8.88
Souillac,-20.5167,57.5167,MU,1613188744,78.8,78,40,12.66
Dudinka,69.4058,86.1778,RU,1613188746,-23.94,86,100,3.94
Domoni,-12.2569,44.5319,KM,1613188747,81.07,78,97,11.27
Byron Bay,-28.65,153.6167,AU,1613188749,86.0,61,40,13.8
Kailua,21.4022,-157.7394,US,1613188749,78.8,65,75,10.36
Maracaju,-21.6144,-55.1683,BR,1613188750,68.61,90,0,1.16
Bayeux,-7.125,-34.9322,BR,1613188751,75.2,100,90,5.75
Awjilah,29.1081,21.2869,LY,1613188751,49.39,83,0,4.94
Yakeshi,49.2833,120.7333,CN,1613188752,-1.16,88,24,18.05
Smolenka,52.1352,113.4974,RU,1613188753,1.4,42,4,13.42
At-Bashi,41.1702,75.8106,KG,1613188753,25.59,78,99,0.69
Los Llanos de Aridane,28.6585,-17.9182,ES,1613188754,62.6,67,0,10.36
Negombo,7.2083,79.8358,LK,1613188755,80.6,78,0,10.36
Erenhot,43.6475,111.9767,CN,1613188756,14.56,87,14,7.67
Umm Kaddadah,13.6017,26.6876,SD,1613188756,68.7,24,0,20.47
Lyuban',52.7985,28.0048,BY,1613188757,8.53,94,100,19.8
Khovd,48.0056,91.6419,MN,1613188758,10.09,86,0,3.13
Tuatapere,-46.1333,167.6833,NZ,1613188758,69.01,63,70,5.01
Kavaratti,10.5669,72.642,IN,1613188759,80.87,63,51,5.75
Lima,-12.0432,-77.0282,PE,1613188760,72.0,83,0,10.36
Pomabamba,-8.8333,-77.4667,PE,1613188761,52.27,74,97,1.54
Bud,39.447,-86.1758,US,1613188762,24.01,74,90,4.61
Blackwater,-23.5833,148.8833,AU,1613188763,90.64,35,31,6.53
Asău,46.4333,26.4,RO,1613188763,16.0,43,0,7.4
Tomatlán,19.9333,-105.25,MX,1613188764,59.38,86,0,1.99
Zaigrayevo,51.8336,108.2703,RU,1613188765,-9.4,77,3,6.26
Tucupita,9.0622,-62.051,VE,1613188765,71.31,98,35,3.6
Banjar,-8.19,114.9675,ID,1613188766,86.0,70,20,10.36
Gaoual,11.75,-13.2,GN,1613188767,67.69,57,0,1.66
Carballo,43.213,-8.691,ES,1613188768,53.6,82,0,11.5
Puerto Nariño,-3.7703,-70.3831,CO,1613188768,75.2,100,75,0.81
Almaznyy,48.0448,40.045,RU,1613188769,17.6,79,40,13.42
Sørland,67.667,12.6934,NO,1613188770,33.96,88,100,16.08
Kharp,66.8014,65.8081,RU,1613188770,-22.47,85,99,0.83
Merauke,-8.4667,140.3333,ID,1613188743,83.73,77,100,7.9
Magdalena,14.1999,121.429,PH,1613188772,81.0,83,90,4.61
Hambantota,6.1241,81.1185,LK,1613188772,80.6,89,0,3.44
Río Gallegos,-51.6226,-69.2181,AR,1613188773,50.0,57,0,4.61
Rabo de Peixe,37.8,-25.5833,PT,1613188774,61.0,88,40,18.41
Kamenka,51.3223,42.7678,RU,1613188711,21.99,88,100,14.23
Inhambane,-23.865,35.3833,MZ,1613188775,79.34,86,62,10.58
Silver City,32.7701,-108.2803,US,1613188776,50.0,32,90,6.91
Campoverde,-8.4753,-74.8058,PE,1613188778,73.06,95,100,1.79
Saposoa,-6.934,-76.7716,PE,1613188779,72.34,91,100,1.83
Kualakapuas,-3.0091,114.3876,ID,1613188780,86.0,74,40,5.75
Strezhevoy,60.7333,77.5889,RU,1613188781,-16.6,76,0,2.24
Penticton,49.4806,-119.5858,CA,1613188782,10.4,67,90,5.75
Batticaloa,7.7102,81.6924,LK,1613188782,78.49,85,74,6.89
Xinyu,27.8043,114.9334,CN,1613188783,61.45,73,61,3.96
Williams Lake,52.1415,-122.1445,CA,1613188784,-9.4,77,20,3.44
Montepuez,-13.1256,38.9997,MZ,1613188785,70.83,95,96,7.81
Watsa,3.0372,29.5355,CD,1613188786,65.05,36,42,2.24
Zaysan,47.4667,84.8667,KZ,1613188786,10.06,94,75,2.06
Mubi,10.2676,13.2644,NG,1613188787,65.3,27,48,1.77
Raton,36.9034,-104.4391,US,1613188788,14.0,85,90,9.22
Brigantine,39.4101,-74.3646,US,1613188789,30.0,63,90,3.44
Toužim,50.0605,12.9851,CZ,1613188789,10.4,92,0,2.3
Feijó,-8.1642,-70.3536,BR,1613188790,73.49,96,100,1.92
Dingle,10.9995,122.6711,PH,1613188791,84.72,74,12,6.69
Rodniki,57.1051,41.7305,RU,1613188791,5.72,95,100,18.84
Ishigaki,24.3448,124.1572,JP,1613188647,75.2,69,20,19.57
Durango,24.8333,-104.8333,MX,1613188755,47.08,49,0,5.37
Gračac,44.3006,15.8547,HR,1613188793,32.0,43,40,12.66
Dom Pedrito,-30.9828,-54.6731,BR,1613188794,66.24,96,45,4.61
Parabel',58.6978,81.4825,RU,1613188795,-14.67,88,100,5.79
Taltal,-25.4,-70.4833,CL,1613188795,65.89,75,0,4.38
Manicoré,-5.8092,-61.3003,BR,1613188796,73.92,97,63,1.45
Chipinge,-20.1883,32.6236,ZW,1613188797,63.91,100,100,5.28
Maragogi,-9.0122,-35.2225,BR,1613188798,77.56,84,2,7.47
Vestmanna,62.1564,-7.1664,FO,1613188798,37.4,65,90,23.02
Mergen,49.1833,125.2167,CN,1613188799,16.57,88,69,12.75
Havøysund,70.9963,24.6622,NO,1613188800,26.6,80,40,5.75
Sangar,63.9242,127.4739,RU,1613188801,-0.85,93,100,7.0
Thinadhoo,0.5333,72.9333,MV,1613188802,82.71,69,79,11.34
Ojinaga,29.5667,-104.4167,MX,1613188804,46.4,61,1,20.71
Sinnamary,5.3833,-52.95,GF,1613188677,77.88,87,90,13.11
La Palma,33.8464,-118.0467,US,1613188807,60.8,59,1,5.35
Khasan,42.4308,130.6434,RU,1613188812,35.69,85,100,0.89
La Ronge,55.1001,-105.2842,CA,1613188816,-27.4,75,13,0.74
Tucumã,-0.1833,-50.05,BR,1613188817,76.82,92,98,7.27
Tyulyachi,55.8913,50.2399,RU,1613188819,30.2,93,90,11.18
Port Hardy,50.6996,-127.4199,CA,1613188820,33.8,55,90,29.93
Guangyuan,32.442,105.823,CN,1613188821,39.99,89,100,1.01
Chizhou,30.6578,117.4831,CN,1613188822,63.5,65,1,1.43
Batouri,4.4333,14.3667,CM,1613188824,63.63,32,16,2.39
Kayerkan,69.3497,87.7602,RU,1613188825,-22.74,86,100,3.27
Okhotsk,59.3833,143.3,RU,1613188726,17.19,92,100,4.09
Fatehābād,29.5167,75.45,IN,1613188827,68.92,27,98,4.68
Jimeta,9.2833,12.4667,NG,1613188828,68.9,23,45,1.41
Conakry,9.538,-13.6773,GN,1613188828,77.88,75,8,8.79
Balkanabat,39.5108,54.3671,TM,1613188830,57.63,36,3,11.05
Asunción,-25.3007,-57.6359,PY,1613188624,73.4,88,0,3.91
Westport,41.1415,-73.3579,US,1613188833,28.4,34,90,4.61
Moree,-29.4667,149.85,AU,1613188826,78.8,73,90,24.16
Mineros,-17.1167,-63.2333,BO,1613188834,68.0,94,65,2.3
Tashtagol,52.7657,87.8894,RU,1613188835,3.36,90,53,1.88
Tutóia,-2.7619,-42.2744,BR,1613188836,80.26,82,100,10.92
Assiniboia,49.6334,-105.9845,CA,1613188837,-23.8,69,98,3.44
Boa Vista,2.8197,-60.6733,BR,1613188838,78.8,73,40,6.91
Basco,20.4487,121.9702,PH,1613188767,73.13,78,0,14.85
Auki,-8.7676,160.7034,SB,1613188840,78.67,90,100,10.98
Egvekinot,66.3167,-179.1667,RU,1613188738,-18.15,87,100,21.0
Seminole,28.7086,-81.2081,US,1613188843,73.0,88,1,4.61
Hobyo,5.3505,48.5268,SO,1613188843,75.43,75,78,14.97
Shumskiy,54.8318,99.1328,RU,1613188844,0.19,84,100,1.88
Jérémie,18.65,-74.1167,HT,1613188845,75.27,74,0,2.93
Mirny,62.5353,113.9611,RU,1613188847,-17.19,86,40,6.38
Manacapuru,-3.2997,-60.6206,BR,1613188690,75.2,94,20,3.44
Sioux Lookout,50.1001,-91.917,CA,1613188848,-22.0,69,90,4.61
Ahlat,38.7518,42.4814,TR,1613188849,26.17,93,18,1.79
Black Diamond,47.3087,-122.0032,US,1613188850,28.0,79,100,7.87
Ustyuzhna,58.8394,36.4321,RU,1613188851,-2.13,89,100,10.51
Mogzon,51.7435,111.9606,RU,1613188852,-2.56,84,2,12.21
