City,Latitude,Longitude,Country,Date,Max Temperature,Humidity,Cloudiness,Wind Speed
Kabalo,-6.05,26.9167,CD,1613261074,70.07,96,84,2.01
Cherskiy,68.75,161.3,RU,1613261075,-6.14,83,51,12.73
Kaitangata,-46.2817,169.8464,NZ,1613261076,66.0,56,100,5.01
Pangnirtung,66.1451,-65.7125,CA,1613261076,-22.34,79,72,1.54
Gogoşari,43.8667,25.7,RO,1613261077,28.0,40,100,2.44
Qaanaaq,77.484,-69.3632,GL,1613261078,7.68,76,0,6.15
Vila Franca do Campo,37.7167,-25.4333,PT,1613261078,59.0,77,20,23.02
Fort Walton Beach,30.4058,-86.6188,US,1613261079,55.0,87,90,5.75
Manali,13.1667,80.2667,IN,1613261080,71.6,88,20,2.3
Luganville,-15.5333,167.1667,VU,1613261080,84.52,74,100,7.38
Ushuaia,-54.8,-68.3,AR,1613261081,44.6,76,40,20.71
Khovd,48.0056,91.6419,MN,1613261082,4.24,89,51,1.72
Vostok,46.4856,135.8833,RU,1613261083,20.98,97,100,4.61
Punta Arenas,-53.15,-70.9167,CL,1613260965,51.8,50,0,11.5
Nome,64.5011,-165.4064,US,1613261084,27.0,43,75,3.44
High Level,58.5169,-117.136,CA,1613261085,-0.4,71,1,8.05
Milas,37.3164,27.7839,TR,1613261086,41.0,93,75,3.44
Broome,42.2506,-75.833,US,1613261086,28.0,39,90,4.61
Vaini,-21.2,-175.2,TO,1613261087,86.0,74,40,8.05
York,40.1254,-77.0,US,1613260801,26.6,63,90,6.91
Zhigansk,66.7697,123.3711,RU,1613261088,-14.31,88,98,13.04
Tuktoyaktuk,69.4541,-133.0374,CA,1613261089,-7.6,77,75,8.05
Baker City,44.7749,-117.8344,US,1613261090,24.8,68,90,8.05
Butaritari,3.0707,172.7902,KI,1613261091,81.36,77,84,9.62
Jacmel,18.2342,-72.5347,HT,1613261091,82.4,54,0,17.27
Bluff,-46.6,168.3333,NZ,1613261092,55.65,84,100,7.02
Bredasdorp,-34.5322,20.0403,ZA,1613261093,66.2,88,7,4.61
Albany,42.6001,-73.9662,US,1613260841,19.99,42,90,5.75
Tres Picos,15.8667,-93.5333,MX,1613261094,79.21,58,0,4.56
Busselton,-33.65,115.3333,AU,1613261095,66.0,74,0,1.01
Benguela,-12.5763,13.4055,AO,1613261095,73.71,77,0,4.21
Padang,-0.9492,100.3543,ID,1613261096,75.2,94,20,2.3
Namatanai,-3.6667,152.4333,PG,1613261097,83.37,76,100,4.27
Geraldton,-28.7667,114.6,AU,1613260849,73.4,83,90,9.22
Hithadhoo,-0.6,73.0833,MV,1613261098,82.31,74,79,8.99
Inongo,-1.95,18.2667,CD,1613261099,75.36,87,97,4.92
Hilo,19.7297,-155.09,US,1613261100,78.8,69,75,5.75
Grand Gaube,-20.0064,57.6608,MU,1613261100,75.0,80,2,1.99
Esperance,-33.8667,121.9,AU,1613261008,64.4,77,45,10.36
Carnarvon,-24.8667,113.6333,AU,1613261083,82.4,89,30,5.75
Ulladulla,-35.35,150.4667,AU,1613261104,68.0,77,90,10.36
Glace Bay,46.1969,-59.957,CA,1613261060,26.01,74,90,11.5
New Norfolk,-42.7826,147.0587,AU,1613261106,69.01,40,3,3.0
Dingle,10.9995,122.6711,PH,1613261107,78.22,86,100,8.19
Buraidah,26.326,43.975,SA,1613261108,60.8,59,0,10.38
Virginia Beach,36.8529,-75.978,US,1613260854,39.99,99,100,3.0
Zyryanovsk,49.7386,84.2719,KZ,1613261109,-1.28,90,40,0.38
Leningradskiy,69.3833,178.4167,RU,1613261110,-11.25,86,100,4.07
Nanortalik,60.1432,-45.2371,GL,1613261111,34.21,86,100,1.99
Lata,40.1629,-8.3327,PT,1613261111,54.0,93,40,3.44
Fallon,39.4735,-118.7774,US,1613261112,45.0,53,1,16.11
Aitape,-3.1374,142.3475,PG,1613261113,79.68,76,98,3.74
Atuona,-9.8,-139.0333,PF,1613261113,79.16,79,6,16.49
Ribeira Grande,38.5167,-28.7,PT,1613261115,57.76,65,67,27.22
Mataura,-46.1927,168.8643,NZ,1613261115,64.78,55,100,1.07
Rikitea,-23.1203,-134.9692,PF,1613261116,80.4,73,69,9.84
Roald,62.5833,6.1333,NO,1613261117,28.4,54,0,12.66
Iqaluit,63.7506,-68.5145,CA,1613260849,-5.8,65,20,4.61
Singkawang,0.9,109.0,ID,1613261119,75.81,85,94,7.67
Khatanga,71.9667,102.5,RU,1613261121,-31.74,83,21,7.99
Pishin,30.5803,66.9961,PK,1613261122,47.1,45,0,2.51
Kavieng,-2.5744,150.7967,PG,1613261122,84.83,70,95,5.88
Ponta do Sol,32.6667,-17.1,PT,1613261123,57.2,82,20,5.75
Chokurdakh,70.6333,147.9167,RU,1613261124,-20.13,77,0,2.15
Shache,38.4167,77.2406,CN,1613261124,38.73,68,100,4.21
Santiago del Estero,-27.7951,-64.2615,AR,1613261004,80.01,73,2,5.03
Bengkulu,-3.8004,102.2655,ID,1613261126,77.56,82,100,4.5
Teahupoo,-17.8333,-149.2667,PF,1613261126,86.0,66,40,16.11
Oranjemund,-28.55,16.4333,NA,1613261127,64.44,91,55,5.73
Corinth,37.9407,22.9573,GR,1613261128,46.99,68,100,8.01
Kirakira,-10.4544,161.9205,SB,1613261129,83.93,77,92,9.78
Santa Cruz de la Sierra,-17.8,-63.1667,BO,1613260947,82.4,61,20,6.91
Clyde River,70.4692,-68.5914,CA,1613261051,-2.2,84,100,12.66
Staryy Nadym,65.6118,72.6842,RU,1613261131,-32.21,84,0,4.0
Aspindza,41.5739,43.2483,GE,1613261131,31.64,91,90,1.43
Caravelas,-17.7125,-39.2481,BR,1613261132,75.33,81,51,6.02
Srednekolymsk,67.45,153.6833,RU,1613261133,-20.67,86,89,7.85
Jamestown,42.097,-79.2353,US,1613261134,23.0,93,90,5.75
Provideniya,64.3833,-173.3,RU,1613261135,11.01,92,100,17.38
Hobart,-42.8794,147.3294,AU,1613261136,69.01,63,20,6.91
Souillac,-20.5167,57.5167,MU,1613261136,75.2,94,40,3.44
Port Elizabeth,-33.918,25.5701,ZA,1613261137,75.2,88,20,2.3
Port Alfred,-33.5906,26.891,ZA,1613261138,75.0,94,94,10.11
Xining,36.6167,101.7667,CN,1613261138,23.99,66,6,2.21
Samagaltay,50.6022,95.0047,RU,1613261139,-5.17,84,100,3.71
Tual,-5.6667,132.75,ID,1613261140,84.07,75,68,12.44
Saint Anthony,45.0205,-93.218,US,1613261140,-4.0,49,20,5.75
Severo-Kuril'sk,50.6789,156.125,RU,1613261141,26.24,92,94,9.31
Barrow,71.2906,-156.7887,US,1613260972,-9.4,77,75,12.66
Lavrentiya,65.5833,-171.0,RU,1613261142,1.09,90,100,12.77
Lebu,-37.6167,-73.65,CL,1613261143,57.22,77,1,17.29
Terre Haute,39.4667,-87.4139,US,1613260922,16.0,79,90,11.5
Maragogi,-9.0122,-35.2225,BR,1613260902,78.85,81,47,9.8
Mweka,-4.85,21.5667,CD,1613260920,70.52,84,96,1.48
Prince Rupert,54.3161,-130.3201,CA,1613260994,37.4,25,1,6.91
Saskylakh,71.9167,114.0833,RU,1613261147,-30.35,77,70,3.29
Bethel,41.3712,-73.414,US,1613261148,26.6,36,90,5.75
Hay River,60.8156,-115.7999,CA,1613261149,5.0,61,0,9.22
Akdepe,42.0551,59.3788,TM,1613261150,42.8,75,0,9.22
Talnakh,69.4865,88.3972,RU,1613260917,-24.72,84,100,1.79
Tiksi,71.6872,128.8694,RU,1613261151,-15.12,89,100,8.48
Guangyuan,32.442,105.823,CN,1613261152,39.99,92,2,1.3
Ixtapa,20.7,-105.2,MX,1613260989,72.0,64,90,9.22
Los Llanos de Aridane,28.6585,-17.9182,ES,1613261153,62.6,72,0,8.05
Nikolskoye,59.7035,30.7861,RU,1613261154,17.6,93,75,4.47
Tura,25.5198,90.2201,IN,1613261155,61.36,43,7,2.13
Ondangwa,-17.9167,15.95,NA,1613261156,73.4,83,97,3.44
Thinadhoo,0.5333,72.9333,MV,1613261156,82.22,73,44,9.53
Shenjiamen,29.9576,122.298,CN,1613261158,52.97,91,100,3.18
São Miguel do Araguaia,-13.275,-50.1628,BR,1613261158,73.67,90,100,3.44
Hambantota,6.1241,81.1185,LK,1613261159,76.03,86,78,5.88
Barra da Estiva,-13.6261,-41.3269,BR,1613261161,66.42,89,62,7.94
Omboué,-1.5746,9.2618,GA,1613261162,76.77,89,62,3.09
Torbay,47.6666,-52.7314,CA,1613261112,27.0,80,90,13.8
San Patricio,28.017,-97.5169,US,1613261164,33.8,93,90,13.8
São José da Coroa Grande,-8.8978,-35.1478,BR,1613261164,77.97,85,16,9.24
Saint Paul Harbor,57.79,-152.4072,US,1613260980,35.67,87,100,27.29
Dikson,73.5069,80.5464,RU,1613261166,-21.59,87,100,11.83
Mahibadhoo,3.7833,72.9667,MV,1613261167,80.74,69,16,8.43
Sola,-13.8833,167.55,VU,1613261167,79.86,87,100,17.65
Petropavlovsk-Kamchatskiy,53.0452,158.6483,RU,1613260883,5.0,61,72,6.71
Yazd,31.8972,54.3675,IR,1613261169,46.4,18,0,4.61
Pyinmana,19.7333,96.2167,MM,1613261169,59.41,52,52,1.97
Saint-Augustin,51.226,-58.6502,CA,1613261010,6.01,91,28,10.22
Ampanihy,-24.7,44.75,MG,1613261171,76.01,63,96,11.59
Mar del Plata,-38.0023,-57.5575,AR,1613261171,70.0,94,75,4.61
Saint-Philippe,-21.3585,55.7679,RE,1613261172,78.8,73,40,12.66
George Town,5.4112,100.3354,MY,1613261173,78.8,78,20,6.06
Cayenne,4.9333,-52.3333,GF,1613261174,80.6,83,90,13.8
Kapaa,22.0752,-159.319,US,1613261175,78.8,65,40,12.66
Tūkrah,32.5341,20.5791,LY,1613261176,56.1,51,0,8.72
Daru,-9.0763,143.2092,PG,1613261056,83.37,77,100,3.74
Half Moon Bay,37.4636,-122.4286,US,1613261177,57.2,71,20,13.8
Bambous Virieux,-20.3428,57.7575,MU,1613261179,75.2,94,40,3.44
Cape Town,-33.9258,18.4232,ZA,1613261178,69.01,94,40,8.05
Hasaki,35.7333,140.8333,JP,1613261180,46.4,81,75,3.44
Hualmay,-11.0964,-77.6139,PE,1613260930,73.92,69,98,9.89
Constitución,-35.3333,-72.4167,CL,1613261156,57.49,88,48,11.21
Rebrikha,53.0733,82.3408,RU,1613261182,1.38,92,74,7.85
Lawrence,38.9717,-95.2353,US,1613260918,6.01,61,1,10.36
Abhā,18.2164,42.5053,SA,1613261184,57.2,82,0,2.51
Yellowknife,62.456,-114.3525,CA,1613261016,-5.8,77,20,12.66
Desa,43.8667,23.0333,RO,1613261185,21.0,64,100,4.14
Poya,-21.35,165.15,NC,1613261186,84.4,61,0,2.13
Fairbanks,64.8378,-147.7164,US,1613260908,7.0,84,1,0.89
San Cristobal,7.7669,-72.225,VE,1613261187,84.2,61,40,5.75
Kontagora,10.3999,5.4695,NG,1613261188,76.08,17,0,5.08
Lagoa,39.05,-27.9833,PT,1613261189,57.2,66,49,30.67
Olafsvik,64.8945,-23.7142,IS,1613261190,39.51,72,100,24.47
Basco,20.4487,121.9702,PH,1613261191,73.02,75,14,10.22
Puerto Ayora,-0.7393,-90.3518,EC,1613261192,80.01,86,64,5.01
Paharpur,32.1038,70.9724,PK,1613261193,56.64,39,0,5.28
Sittwe,20.15,92.9,MM,1613261193,61.07,75,18,5.88
West Wendover,40.7391,-114.0733,US,1613260989,39.2,70,90,26.46
El Carmen,8.5106,-73.4478,CO,1613261195,72.64,73,93,2.89
Toamasina,-18.1667,49.3833,MG,1613261016,75.2,94,75,5.75
Aklavik,68.2191,-135.0107,CA,1613261196,-9.4,70,20,4.03
Karpathos,35.507,27.2132,GR,1613261197,60.8,72,48,9.22
Longyearbyen,78.2186,15.6401,SJ,1613261076,5.0,61,40,8.05
Alexandria,31.2156,29.9553,EG,1613261198,57.2,77,0,5.75
Ledyard Center,41.4398,-72.0142,US,1613260970,28.99,64,90,9.22
Vila Velha,-20.3297,-40.2925,BR,1613260939,77.0,83,0,8.05
Hofn,64.2539,-15.2082,IS,1613261201,37.81,94,100,17.18
Banda Aceh,5.5577,95.3222,ID,1613261178,78.84,78,38,4.68
Hong Kong,22.2855,114.1577,HK,1613261040,64.99,87,14,6.35
Laurentides,46.4334,-74.9826,CA,1613261203,5.79,93,100,3.47
Anadyr,64.75,177.4833,RU,1613261204,15.8,86,90,6.71
Antalaha,-14.9003,50.2788,MG,1613261205,75.69,88,100,4.29
Hermanus,-34.4187,19.2345,ZA,1613261205,63.0,92,0,5.86
Saint-Pierre,-21.3393,55.4781,RE,1613260820,78.8,73,40,12.66
Airai,-8.9266,125.4092,TL,1613260946,67.23,94,100,1.74
Kamloops,50.6665,-120.3192,CA,1613261208,18.0,53,90,0.29
Tigil',57.8,158.6667,RU,1613261209,-9.71,85,0,1.92
Port Macquarie,-31.4333,152.9167,AU,1613261209,78.01,66,72,5.99
Mossamedes,-15.1961,12.1522,AO,1613261205,74.1,73,77,7.05
Chifeng,42.2683,118.9636,CN,1613261199,10.51,93,100,9.91
Taltal,-25.4,-70.4833,CL,1613261212,66.79,74,18,2.98
Tolbazy,54.0241,55.8825,RU,1613261212,33.8,93,90,17.9
Grindavik,63.8424,-22.4338,IS,1613261213,37.4,87,90,24.16
Gizo Government Station,-8.103,156.8419,SB,1613261214,84.74,72,48,9.6
Illela,13.7292,5.2975,NG,1613261214,74.48,17,0,9.55
Bedēsa,8.9,40.7833,ET,1613261215,63.81,37,0,1.12
Kāzerūn,29.6195,51.6541,IR,1613261216,53.38,42,7,2.51
La Ronge,55.1001,-105.2842,CA,1613261216,-7.6,59,77,4.61
Coyhaique,-45.5752,-72.0662,CL,1613261189,57.2,62,75,5.75
Avarua,-21.2078,-159.775,CK,1613261218,86.0,70,40,8.05
Liberal,37.0431,-100.921,US,1613261120,8.6,78,90,11.5
Touros,-5.1989,-35.4608,BR,1613261220,80.6,78,20,9.22
Avera,33.194,-82.5271,US,1613261221,41.0,95,90,5.75
Barabinsk,55.3571,78.357,RU,1613261222,8.78,95,100,8.41
Kāmyārān,34.7956,46.9355,IR,1613261223,35.6,60,0,4.61
Sena Madureira,-9.0656,-68.6569,BR,1613261223,73.47,96,96,2.06
Conakry,9.538,-13.6773,GN,1613261224,79.65,74,0,8.25
Fengzhen,40.4394,113.1536,CN,1613261225,27.1,83,3,9.17
East London,-33.0153,27.9116,ZA,1613261204,76.73,87,93,12.26
Meulaboh,4.1363,96.1285,ID,1613261227,75.51,81,35,4.61
Thompson,55.7435,-97.8558,CA,1613261164,-13.0,70,20,8.05
Port Hardy,50.6996,-127.4199,CA,1613261229,33.8,86,90,9.22
Częstochowa,50.7965,19.1241,PL,1613261232,23.0,86,75,10.36
Patiya,22.2931,91.9762,BD,1613261232,56.55,62,0,4.07
Sibolga,1.7427,98.7792,ID,1613261035,76.48,79,26,3.74
Murmashi,68.8154,32.8115,RU,1613261234,-25.6,75,20,2.24
Muisne,0.6,-80.0333,EC,1613261234,78.01,80,89,2.48
Puerto Madryn,-42.7692,-65.0385,AR,1613261228,71.6,83,40,9.22
Dunedin,-45.8742,170.5036,NZ,1613261212,68.0,57,100,8.99
Umm Kaddadah,13.6017,26.6876,SD,1613261238,69.48,23,0,15.26
Raton,36.9034,-104.4391,US,1613261239,14.0,79,90,11.5
Kouroussa,10.65,-9.8833,GN,1613261239,77.31,18,0,1.25
Guerrero Negro,27.9769,-114.0611,MX,1613261183,60.26,70,83,22.48
Pisco,-13.7,-76.2167,PE,1613261241,72.0,73,0,23.02
Guaporé,-28.8456,-51.8903,BR,1613261242,70.0,79,76,1.25
Fortuna,40.5982,-124.1573,US,1613261243,54.0,81,90,13.8
San Joaquin,37.9333,-121.3011,US,1613261245,64.0,42,1,20.71
Dunmore East,52.1514,-6.9861,IE,1613261246,46.99,94,100,11.01
Harper,4.375,-7.7169,LR,1613261246,79.21,87,3,8.39
Tomatlán,19.9333,-105.25,MX,1613261247,72.25,53,1,8.28
Kidal,18.4411,1.4078,ML,1613261248,73.42,16,0,12.41
Faya,18.3851,42.4509,SA,1613261248,57.2,82,0,2.37
Cidreira,-30.1811,-50.2056,BR,1613261249,74.77,84,100,6.98
Faanui,-16.4833,-151.75,PF,1613261250,81.81,68,2,4.76
Arraial do Cabo,-22.9661,-42.0278,BR,1613261251,75.92,91,100,15.88
Narsaq,60.9167,-46.05,GL,1613261252,44.6,33,75,11.5
Gouré,13.9835,10.2704,NE,1613261253,75.99,17,0,10.0
Cabo San Lucas,22.8909,-109.9124,MX,1613261031,73.0,60,1,10.36
Berlevåg,70.8578,29.0864,NO,1613261255,25.0,88,98,12.46
Ayan,56.45,138.1667,RU,1613261256,17.6,96,100,8.05
Sisimiut,66.9395,-53.6735,GL,1613261257,3.6,91,99,5.73
Zambezi,-13.5432,23.1047,ZM,1613261257,63.9,87,90,0.76
Saint-Louis,16.3333,-15.0,SN,1613261259,78.8,27,0,2.3
Vila,42.0304,-8.1588,PT,1613261260,48.99,95,90,3.8
Puerto Escondido,15.85,-97.0667,MX,1613261261,80.6,83,20,13.8
Urucará,-2.5364,-57.76,BR,1613261261,77.49,93,97,2.01
Cape Coast,5.1053,-1.2466,GH,1613261262,81.34,84,13,12.03
Lodja,-3.4833,23.4333,CD,1613261263,71.44,94,98,1.14
Malé,4.1748,73.5089,MV,1613261265,80.6,83,20,10.36
Itarema,-2.9248,-39.9167,BR,1613261265,80.53,82,44,12.57
Nouadhibou,20.931,-17.0347,MR,1613261266,62.6,88,0,20.71
Vaitape,-16.5167,-151.75,PF,1613261213,81.82,68,2,4.92
Batamshinskiy,50.5594,58.2747,KZ,1613261268,28.4,93,75,13.42
Hamilton,39.1834,-84.5333,US,1613260722,26.01,74,90,12.66
La Rioja,42.25,-2.5,ES,1613261269,41.0,93,0,2.3
Barcelos,41.5388,-8.6151,PT,1613261270,54.0,100,75,4.36
Lorengau,-2.0226,147.2712,PG,1613261099,84.29,72,96,8.72
Kahului,20.8947,-156.47,US,1613261093,82.4,57,40,14.97
Lüderitz,-26.6481,15.1594,NA,1613261272,65.16,82,0,10.02
Etchoropo,26.7667,-109.6667,MX,1613261273,72.0,59,18,12.39
Kortkeros,61.8106,51.5806,RU,1613261274,-5.8,71,100,17.9
Mahébourg,-20.4081,57.7,MU,1613260977,75.2,94,40,3.44
Saint Lawrence,36.0553,14.204,MT,1613261275,55.0,87,20,19.57
Agropoli,40.3469,14.9966,IT,1613261276,37.0,65,59,10.0
Rawson,-43.3002,-65.1023,AR,1613261276,71.6,83,40,9.22
Adjumani,3.3779,31.7909,UG,1613261277,73.33,49,98,1.74
Tasiilaq,65.6145,-37.6368,GL,1613261278,32.79,93,100,30.49
Jalu,29.0331,21.5482,LY,1613261279,53.76,42,0,4.65
Kamari,36.8,25.8167,GR,1613261280,57.0,84,86,4.0
Pulandian,39.3953,121.9669,CN,1613261281,42.01,93,40,2.24
Katsuura,35.1333,140.3,JP,1613261281,55.0,66,75,4.61
Nara,34.6851,135.8049,JP,1613261183,55.99,87,20,2.3
Mackay,-21.15,149.2,AU,1613261003,86.0,61,95,13.8
Castro,-24.7911,-50.0119,BR,1613261283,63.75,91,41,3.24
Bonavista,48.6499,-53.1147,CA,1613261284,26.01,86,99,3.44
Beloha,-25.1667,45.05,MG,1613261179,74.52,75,98,9.82
Esim,4.8699,-2.2405,GH,1613261285,80.78,84,0,10.89
Chui,-33.6971,-53.4616,UY,1613261210,70.07,93,53,8.52
Baykit,61.67,96.37,RU,1613261287,-18.58,83,100,1.79
Sinnamary,5.3833,-52.95,GF,1613261288,77.86,85,74,16.69
San Blas,21.5167,-105.2667,MX,1613261288,68.0,64,20,10.36
Ust'-Kulom,61.6864,53.6902,RU,1613261289,-2.63,88,100,10.8
Husavik,66.0449,-17.3389,IS,1613261290,37.4,70,75,18.41
Verāval,20.9,70.3667,IN,1613261291,67.39,81,0,10.4
Malpe,13.35,74.7167,IN,1613261127,71.6,83,13,3.44
Beian,63.6559,9.5683,NO,1613261292,33.8,75,75,19.57
Port-Gentil,-0.7193,8.7815,GA,1613261293,82.4,89,75,6.91
Meadow Lake,34.8014,-106.5436,US,1613261294,57.0,26,75,26.46
Ambon City,-3.6954,128.1814,ID,1613261294,82.4,74,40,11.5
Havøysund,70.9963,24.6622,NO,1613261027,24.8,63,40,6.91
Salinas,36.6777,-121.6555,US,1613261018,57.2,67,1,18.41
Upernavik,72.7868,-56.1549,GL,1613261296,4.37,93,92,2.91
Shūshtar,32.0455,48.8567,IR,1613261297,58.44,49,0,1.59
Estelle,29.8458,-90.1067,US,1613261298,46.4,87,90,14.97
Cockburn Town,21.4612,-71.1419,TC,1613261299,77.0,73,40,13.8
Erdenet,49.0333,104.0833,MN,1613261299,-8.95,83,71,2.44
Korbous,36.8167,10.5687,TN,1613261300,53.6,82,40,9.22
Asău,46.4333,26.4,RO,1613261301,19.0,43,5,7.02
Yerbogachën,61.2767,108.0108,RU,1613261301,-31.81,84,6,1.39
Urusha,54.05,122.9,RU,1613261302,-12.24,86,100,4.97
Gobabis,-22.45,18.9667,NA,1613261305,67.41,76,85,6.69
Skibbereen,51.55,-9.2667,IE,1613261305,48.2,100,90,23.02
Walvis Bay,-22.9575,14.5053,NA,1613261018,68.0,83,67,4.61
Kudahuvadhoo,2.6708,72.8944,MV,1613261245,81.36,71,48,8.55
Matara,5.9485,80.5353,LK,1613261308,75.33,89,63,2.98
Deputatsky,69.3,139.9,RU,1613261309,-32.4,86,74,2.73
Ivybridge,50.3904,-3.9191,GB,1613261310,42.01,96,100,5.01
Khor,47.8861,134.9464,RU,1613261310,12.0,92,96,9.51
Gurupi,-11.7292,-49.0686,BR,1613261306,74.93,90,99,0.67
Uch,45.3192,-0.9345,FR,1613261312,37.4,93,13,4.61
Palafrugell,41.9174,3.1631,ES,1613261312,51.01,93,90,3.44
Kumul,42.8,93.45,CN,1613261313,28.92,86,18,10.58
Ruidoso,33.3317,-105.673,US,1613261314,44.01,80,1,17.27
Blind River,46.1834,-82.9582,CA,1613261315,8.6,66,90,9.22
Awjilah,29.1081,21.2869,LY,1613261315,53.31,43,0,4.14
Lusambo,-4.9667,23.45,CD,1613261316,71.65,85,100,2.01
Jizan,17.3333,42.6667,SA,1613261318,78.8,78,10,3.44
Bayan,46.0833,127.4,CN,1613261319,-1.7,89,99,4.72
Marolambo,-20.05,48.1167,MG,1613261319,67.32,93,100,1.9
Tuatapere,-46.1333,167.6833,NZ,1613261320,57.09,87,100,5.06
Zhezkazgan,47.8043,67.7144,KZ,1613261321,13.93,94,0,9.46
Champagnole,46.7445,5.9135,FR,1613261322,19.0,76,86,8.01
Amga,60.8953,131.9608,RU,1613261322,-9.44,88,100,5.5
Ekuvukeni,-28.4675,30.1551,ZA,1613261323,65.98,93,98,0.36
Siderno,38.2779,16.302,IT,1613261324,52.0,93,75,14.97
Acaraú,-2.8856,-40.12,BR,1613261324,80.6,82,61,13.98
Sitka,57.0531,-135.33,US,1613261325,37.4,35,1,11.5
Ancud,-41.8697,-73.8203,CL,1613261326,60.01,67,0,3.44
Henties Bay,-22.116,14.2845,NA,1613261326,67.73,89,88,3.53
Phanat Nikhom,13.4458,101.1844,TH,1613261327,82.0,81,70,4.97
Motygino,58.1831,94.7592,RU,1613261328,-12.57,89,100,3.06
Tamandaré,-8.7597,-35.1047,BR,1613261328,78.06,84,27,8.48
Buala,-8.145,159.5921,SB,1613261329,83.61,80,80,12.53
Svetlaya,46.5389,138.3297,RU,1613261330,29.46,90,95,2.86
Jāwā,31.8525,35.9393,JO,1613261331,48.2,81,0,6.98
Atyrau,47.1167,51.8833,KZ,1613261331,30.2,74,40,8.95
Angermünde,53.015,13.9992,DE,1613261333,19.99,74,0,6.62
Patāmundai,20.5667,86.5667,IN,1613261333,65.61,86,0,5.14
Doha,25.2867,51.5333,QA,1613261335,66.2,63,0,5.75
Codrington,-38.2667,141.9667,AU,1613261336,61.09,67,100,9.42
Brønnøysund,65.4625,12.1997,NO,1613261336,33.8,80,90,6.91
Naples,40.8333,14.25,IT,1613261337,37.4,56,0,9.22
Venice,27.0998,-82.4543,US,1613261338,75.2,88,1,6.91
Champerico,14.3,-91.9167,GT,1613261338,86.0,66,20,11.5
Nakło nad Notecią,53.1421,17.6018,PL,1613261231,21.2,86,0,11.5
Aksha,50.2814,113.2867,RU,1613261340,-13.13,82,85,3.09
Ahipara,-35.1667,173.1667,NZ,1613261340,73.2,74,100,9.62
Tazovsky,67.4667,78.7,RU,1613261341,-39.14,81,18,4.07
Grajaú,-5.8194,-46.1386,BR,1613261342,74.8,94,99,5.21
Portree,57.4129,-6.1942,GB,1613261343,41.0,70,99,25.99
Borba,-4.3878,-59.5939,BR,1613261343,76.73,96,100,0.92
Sabzawār,36.2126,57.6819,IR,1613261344,47.7,48,72,2.59
Sukhobezvodnoye,57.0491,44.8891,RU,1613261345,3.27,94,100,6.4
Kawalu,-7.3817,108.2082,ID,1613261220,74.66,89,81,1.32
Kerema,-7.9631,145.7785,PG,1613261210,81.3,73,100,2.55
Kurmanayevka,52.5093,52.0675,RU,1613261347,15.35,92,63,13.13
Guerrero,17.6667,-100.0,MX,1613261347,69.98,34,0,4.29
Krasnoshchekovo,51.6708,82.7289,RU,1613261348,7.84,89,76,3.2
Inuvik,68.3499,-133.7218,CA,1613261349,-4.0,71,95,3.44
Kencong,-8.2833,113.3667,ID,1613261350,77.32,87,100,2.44
Saldanha,-33.0117,17.9442,ZA,1613261350,66.2,88,1,3.44
Oliveira dos Brejinhos,-12.3169,-42.8961,BR,1613261351,77.9,62,76,4.81
Garoua Boulaï,5.8833,14.55,CM,1613261352,66.16,28,0,3.76
Palu,-0.8917,119.8707,ID,1613261353,78.57,78,99,1.99
Palmer,42.1584,-72.3287,US,1613261194,27.0,46,90,3.44
Volga,57.9516,38.3879,RU,1613261354,6.08,94,100,10.87
Kaka,37.3482,59.6143,TM,1613261355,52.9,42,71,2.62
Atambua,-9.1061,124.8925,ID,1613261356,78.46,80,100,1.16
Biloli,18.7667,77.7333,IN,1613261356,63.39,46,36,7.29
Abnūb,27.2696,31.1511,EG,1613261357,53.6,71,0,10.36
São João da Barra,-21.6403,-41.0511,BR,1613261195,77.23,84,100,14.88
Gopālur,16.6167,77.8,IN,1613261359,62.62,55,29,1.77
Matamoros,25.5333,-103.25,MX,1613261185,64.4,36,1,0.78
Byron Bay,-28.65,153.6167,AU,1613261360,75.2,78,90,21.85
Punto Fijo,11.6956,-70.1996,VE,1613261361,78.19,79,1,29.75
Araouane,18.9048,-3.5265,ML,1613261327,74.86,15,0,10.58
Northam,51.0333,-4.2167,GB,1613261362,42.01,89,99,20.0
Hattiesburg,31.3271,-89.2903,US,1613261266,37.4,81,90,8.05
Jishu,44.3167,126.8,CN,1613261363,9.61,93,100,8.32
Somers Point,39.3176,-74.5946,US,1613261364,32.0,93,90,11.5
Willmar,45.1219,-95.0433,US,1613261365,-7.6,64,1,17.27
Margate,51.3813,1.3862,GB,1613261366,34.0,44,100,5.01
Portland,45.5234,-122.6762,US,1613260804,33.01,80,90,12.66
Lichinga,-13.3128,35.2406,MZ,1613261368,68.0,83,75,2.3
Siátista,40.2619,21.5442,GR,1613261368,26.01,79,100,13.8
Emba,48.8264,58.1442,KZ,1613261369,25.59,98,100,6.76
Camopi,3.1655,-52.3158,GF,1613261370,73.33,97,100,3.49
Hearst,49.6835,-83.6665,CA,1613261371,-2.2,60,100,5.75
Shahr-e Bābak,30.1165,55.1186,IR,1613261371,44.85,47,0,3.56
Ulaangom,49.9811,92.0667,MN,1613261372,-13.14,87,52,0.76
Ballina,-28.8667,153.5667,AU,1613261152,75.2,78,90,21.85
Davlekanovo,54.2215,55.0343,RU,1613261373,33.8,93,90,17.9
Port Augusta,-32.5,137.7667,AU,1613261374,73.99,64,0,14.97
Sohbatpur,28.5202,68.5434,PK,1613261312,59.63,33,51,1.97
Kloulklubed,7.0419,134.2556,PW,1613261377,78.8,89,75,11.01
Kruisfontein,-34.0033,24.7314,ZA,1613261377,73.0,94,95,4.52
Mysłowice,50.2075,19.1667,PL,1613261378,25.0,97,99,6.8
Storforshei,66.4043,14.5233,NO,1613261379,15.73,89,95,2.13
Cabrobó,-8.5142,-39.31,BR,1613261380,85.44,34,11,19.17
Narganá,9.4428,-78.5906,PA,1613261380,78.66,81,40,9.26
Saint George,37.1041,-113.5841,US,1613261381,54.0,66,20,3.44
Murgab,37.4966,61.9714,TM,1613261382,48.2,61,0,6.29
Abéché,13.8292,20.8324,TD,1613261382,73.49,19,0,14.79
Ketchikan,55.3422,-131.6461,US,1613261383,37.4,38,1,9.22
Kyaukse,21.6,96.1333,MM,1613261349,64.4,63,20,5.75
Muravlenko,63.7898,74.523,RU,1613261233,-31.16,85,0,6.58
Mamu Kanjan,30.8333,72.8,PK,1613261385,55.83,37,0,4.45
Garden City,42.3256,-83.331,US,1613261386,23.0,73,90,8.05
Panzhihua,26.5851,101.7128,CN,1613261386,42.01,73,0,1.03
Coquimbo,-29.9533,-71.3436,CL,1613261388,64.4,82,75,8.05
Dudinka,69.4058,86.1778,RU,1613261388,-28.14,85,95,3.0
Hyères,43.1167,6.1167,FR,1613261390,44.6,49,0,19.57
Mount Gambier,-37.8333,140.7667,AU,1613261391,62.6,63,90,12.66
Campoverde,-8.4753,-74.8058,PE,1613261391,82.4,74,20,2.3
Dryden,49.7833,-92.7503,CA,1613261151,-13.0,77,75,4.61
Kurumkan,54.3,110.3,RU,1613261393,-16.67,79,66,2.13
Forsytheganj,52.6333,29.7333,BY,1613261393,11.03,94,97,13.11
Maragheh,37.3917,46.2398,IR,1613261394,38.17,72,27,2.64
Hoa Binh,20.8133,105.3383,VN,1613261395,66.2,77,0,3.44
Zorritos,-3.6805,-80.6782,PE,1613261395,78.58,72,19,8.66
Barentu,15.1139,37.5928,ER,1613261396,64.26,69,24,4.59
Shakawe,-18.3667,21.85,BW,1613261397,66.11,78,100,6.04
Mersing,2.4312,103.8405,MY,1613261398,78.8,83,99,9.22
Bathsheba,13.2167,-59.5167,BB,1613261398,78.8,69,40,20.71
São Filipe,14.8961,-24.4956,CV,1613261399,71.11,73,0,12.57
Ambilobe,-13.2,49.05,MG,1613261400,73.94,94,86,2.62
Yar-Sale,66.8333,70.8333,RU,1613261400,-28.64,86,82,2.89
Roura,4.7263,-52.3274,GF,1613261401,80.6,83,90,13.8
Shingū,33.7333,135.9833,JP,1613261405,55.4,71,40,4.61
Jinji,23.2281,110.8261,CN,1613261406,61.95,72,0,0.87
Marsá Maţrūḩ,31.3525,27.2453,EG,1613261406,50.0,81,0,2.3
Phonhong,18.5007,102.4166,LA,1613261407,64.4,100,17,2.3
Biak,-0.9131,122.8766,ID,1613261408,79.9,72,93,3.0
Marion,39.7684,-86.1555,US,1613261294,24.01,86,90,14.97
Sladkovo,55.5284,70.3385,RU,1613261409,25.68,98,100,9.75
Eureka,40.8021,-124.1637,US,1613261231,54.0,73,32,5.01
Dalby,-27.1833,151.2667,AU,1613261396,75.0,74,99,4.0
Kaduna,10.5222,7.4383,NG,1613261412,69.22,21,0,5.88
Mayumba,-3.432,10.6554,GA,1613261413,78.37,86,100,1.86
Bud,39.447,-86.1758,US,1613261413,24.01,85,100,9.78
Port Blair,11.6667,92.75,IN,1613261414,78.21,77,58,7.29
Kobryn,52.2138,24.3564,BY,1613261415,21.07,97,87,11.61
Aparecida do Taboado,-20.0867,-51.0936,BR,1613261283,74.46,85,100,3.0
Orange,33.7,-117.7675,US,1613261287,62.01,63,75,9.22
Te Anau,-45.4167,167.7167,NZ,1613261417,56.3,84,100,1.28
Arinos,-15.9169,-46.1056,BR,1613261418,72.99,89,100,1.83
Beyla,8.6833,-8.6333,GN,1613261418,75.38,39,12,4.47
Winslow,35.0242,-110.6974,US,1613261419,39.2,81,90,33.38
Mezen',65.8522,44.24,RU,1613261420,-6.02,90,99,4.36
Chapais,49.7834,-74.8492,CA,1613261421,1.4,78,90,3.44
Laguna,38.421,-121.4238,US,1613261186,64.99,39,20,10.36
Camacha,33.0833,-16.3333,PT,1613261422,55.4,88,20,2.3
Bilma,18.6853,12.9164,NE,1613261423,69.03,22,0,5.28
Gayéri,12.6497,0.4931,BF,1613261423,76.91,15,0,8.32
Puerto Cabezas,14.0351,-83.3888,NI,1613261424,82.4,83,20,4.61
Sabha,27.0377,14.4283,LY,1613261425,58.95,34,0,6.73
Kizilskoye,52.7255,58.8937,RU,1613261426,20.62,97,100,10.33
San Quintín,30.4833,-115.95,MX,1613261426,59.68,69,89,16.4
Alcântara,-2.4089,-44.4147,BR,1613261427,80.6,94,75,11.5
Sylva,58.0348,56.7635,RU,1613261428,26.6,86,75,15.66
Egvekinot,66.3167,-179.1667,RU,1613261359,-10.82,92,100,17.05
Nantucket,41.2835,-70.0995,US,1613261429,32.0,80,90,12.66
Menongue,-14.6585,17.691,AO,1613261430,64.29,52,29,4.07
Buin,-33.7333,-70.75,CL,1613261430,75.2,72,0,12.66
Nyurba,63.2842,118.3319,RU,1613261431,-19.95,87,100,5.91
Sain Alto,23.5833,-103.25,MX,1613261432,61.27,26,12,22.57
Chik,54.9928,82.4311,RU,1613261433,1.4,66,90,8.95
Oistins,13.0667,-59.5333,BB,1613261433,78.8,69,40,20.71
Anicuns,-16.4611,-49.9617,BR,1613261434,67.68,94,97,0.87
Namie,37.4833,141.0,JP,1613261435,57.99,56,0,3.22
Kiruna,67.8557,20.2251,SE,1613261435,-0.4,85,0,5.75
Saurimo,-9.6608,20.3916,AO,1613261436,64.42,93,33,3.27
Sosnogorsk,63.6023,53.8817,RU,1613261437,-15.47,88,51,6.91
Oranjestad,12.524,-70.027,AW,1613261437,80.6,78,20,23.02
Big Spring,32.2504,-101.4787,US,1613261168,19.4,86,90,11.5
Karratha,-20.7377,116.8463,AU,1613261439,81.01,67,13,6.62
Piaçabuçu,-10.4056,-36.4344,BR,1613261440,76.98,76,1,8.14
Trelew,-43.249,-65.3051,AR,1613261441,71.6,83,40,9.22
Jijiga,9.35,42.8,ET,1613261442,57.9,35,17,5.7
Sorong,-0.8833,131.25,ID,1613261443,80.73,80,100,11.32
Raudeberg,61.9875,5.1352,NO,1613261443,28.99,45,0,9.31
Barra do Garças,-15.89,-52.2567,BR,1613261445,72.61,86,100,2.44
Dabat,12.9842,37.765,ET,1613261445,49.08,51,38,3.31
Kununurra,-15.7667,128.7333,AU,1613261316,80.6,94,40,8.05
Mount Isa,-20.7333,139.5,AU,1613261448,82.4,78,40,10.36
Quesnel,52.9999,-122.5029,CA,1613261449,-0.4,78,1,2.15
Adrar,20.5022,-10.0711,MR,1613261449,66.18,22,0,11.5
Dongkan,33.9997,119.8308,CN,1613261450,49.71,76,100,5.7
Pevek,69.7008,170.3133,RU,1613261175,-14.03,88,93,3.91
Klaksvík,62.2266,-6.589,FO,1613261451,37.4,87,90,40.29
Baihar,22.1,80.55,IN,1613261452,58.91,34,0,2.91
Äänekoski,62.6946,25.818,FI,1613261453,17.6,93,75,8.05
At-Bashi,41.1702,75.8106,KG,1613261169,17.74,79,77,1.43
Camaná,-16.6228,-72.7111,PE,1613261454,72.07,74,4,4.32
Palmares do Sul,-30.2578,-50.5097,BR,1613261455,73.51,82,100,5.41
Jacqueville,5.2052,-4.4146,CI,1613261455,82.4,94,20,8.05
Rūdbār,30.15,62.6,AF,1613261456,57.4,32,0,2.44
Umm Hājar,13.2954,19.6966,TD,1613261425,73.78,19,0,8.95
Dezful,32.3811,48.4058,IR,1613261458,57.85,43,0,2.84
Neya,58.2972,43.8681,RU,1613261458,5.11,94,100,7.56
Nabire,-3.3667,135.4833,ID,1613261459,78.08,86,76,2.57
Loikaw,19.6742,97.2094,MM,1613261460,56.88,49,0,1.9
Bhatkal,13.9667,74.5667,IN,1613261460,72.86,76,10,4.56
Kuusamo,65.9667,29.1833,FI,1613261461,10.4,85,90,4.61
Lashio,22.9333,97.75,MM,1613261462,50.74,79,0,1.43
Marsh Harbour,26.5412,-77.0636,BS,1613261462,75.85,84,64,13.49
Makokou,0.5738,12.8642,GA,1613261463,71.87,92,94,2.98
Nizhniy Kuranakh,58.8353,125.4869,RU,1613261464,-14.08,86,100,6.46
Banepā,27.6298,85.5214,NP,1613261465,50.0,93,20,2.3
Menzel Salem,35.8567,8.4765,TN,1613261465,42.8,93,40,5.75
Ilulissat,69.2167,-51.1,GL,1613261466,15.8,79,90,14.97
Narrabri,-30.3167,149.7833,AU,1613261467,77.0,64,0,19.57
Manggar,-2.8833,108.2667,ID,1613261467,79.66,80,100,11.43
Severomuysk,56.1481,113.4267,RU,1613261468,-30.77,85,63,3.11
Muroto-misakicho,33.2833,134.15,JP,1613261469,53.6,87,75,9.22
Arlit,18.7369,7.3853,NE,1613261372,68.79,21,0,7.81
Haines Junction,60.7522,-137.5108,CA,1613261470,3.2,43,0,1.14
Jinxiang,27.4327,120.6062,CN,1613261471,56.73,87,71,3.94
Codajás,-3.8367,-62.0569,BR,1613261472,77.67,93,86,1.01
Rio Grande,-32.035,-52.0986,BR,1613261472,75.99,91,50,6.11
Smoky Lake,54.1169,-112.4686,CA,1613261473,-9.4,64,12,4.61
Sioux Lookout,50.1001,-91.917,CA,1613261474,-13.0,64,75,4.61
Chontalpa,17.7,-93.5167,MX,1613261474,72.16,89,47,6.06
Goma,-1.6792,29.2228,CD,1613261475,65.3,73,100,2.04
Kumluca,36.3703,30.2869,TR,1613261476,54.86,69,7,1.9
Port Lincoln,-34.7333,135.8667,AU,1613261477,63.46,69,93,11.34
Kavaratti,10.5669,72.642,IN,1613261477,80.29,63,70,7.43
Mehamn,71.0357,27.8492,NO,1613261478,25.11,88,100,11.61
Picton,-34.1833,150.6,AU,1613261479,75.0,57,20,5.01
Lompoc,34.6391,-120.4579,US,1613261479,55.4,76,75,21.85
Bilibino,68.0546,166.4372,RU,1613261480,-10.19,85,100,7.61
Moree,-29.4667,149.85,AU,1613261481,84.2,42,22,14.97
Tabory,58.5198,64.5495,RU,1613261482,10.29,95,100,8.57
Stornoway,58.2093,-6.3865,GB,1613261482,42.8,81,75,26.46
Nelson Bay,-32.7167,152.15,AU,1613261483,73.99,68,40,19.57
Muncar,-8.4333,114.3333,ID,1613261484,78.94,82,100,5.19
Peterhead,57.5058,-1.7981,GB,1613261484,33.8,75,40,33.38
Kimbe,-5.5502,150.1429,PG,1613261408,82.94,78,99,2.51
Tartagal,-22.5164,-63.8013,AR,1613261486,77.04,62,93,2.13
Norman Wells,65.282,-126.8329,CA,1613261486,-5.8,71,1,5.75
Zakamensk,50.3741,103.2863,RU,1613261487,-10.95,82,100,2.66
Tambura,5.6,27.4667,SS,1613261488,72.9,24,87,2.66
Islamkot,24.6997,70.177,PK,1613261489,62.56,36,7,6.82
Zeya,53.75,127.2667,RU,1613261489,-10.8,85,70,4.07
Chicama,-7.8447,-79.1469,PE,1613261490,73.4,83,37,16.11
Luanda,-8.8368,13.2343,AO,1613261491,78.8,83,40,5.75
Tula,54.2044,37.6111,RU,1613261244,-3.62,92,92,3.69
Macao,22.2006,113.5461,MO,1613261492,64.4,94,9,3.44
Marawi,7.9986,124.2928,PH,1613261493,79.0,86,64,4.0
Thessalon,46.2501,-83.5666,CA,1613261493,8.6,78,90,3.44
Pochutla,15.7432,-96.4661,MX,1613261494,82.4,51,20,23.02
Sistranda,63.7256,8.834,NO,1613261495,33.8,75,75,19.57
Yatou,37.15,122.3833,CN,1613261496,44.49,81,100,5.66
Broken Hill,-31.95,141.4333,AU,1613261496,66.2,48,0,13.8
Kamaishi,39.2667,141.8833,JP,1613261497,24.8,100,40,3.44
Qiongshan,20.0058,110.3542,CN,1613261498,55.4,100,0,0.72
Abhar,36.1468,49.218,IR,1613261328,39.51,64,0,6.46
Havre-St-Pierre,50.2334,-63.5986,CA,1613261499,6.8,66,1,6.91
Novochernorechenskiy,56.2669,91.0828,RU,1613261500,-3.82,92,100,5.84
Turka,49.1541,23.0297,UA,1613261500,26.01,82,100,4.63
Dolinsk,47.35,142.8,RU,1613261501,15.8,92,40,2.24
Gamba,-2.65,10.0,GA,1613261502,75.15,88,100,3.98
Yining,29.0361,114.5636,CN,1613261502,53.51,83,13,1.95
Durban,-29.8579,31.0292,ZA,1613261503,79.0,88,0,3.44
Arman',59.7,150.1667,RU,1613261441,-1.44,81,25,8.25
Simpang,-1.2667,104.0833,ID,1613261505,76.91,88,67,3.49
Magugu,-4.0167,35.7667,TZ,1613261505,64.99,86,98,2.39
Najrān,17.4924,44.1277,SA,1613261506,57.2,35,0,3.22
Yulara,-25.2406,130.9889,AU,1613261507,75.2,53,90,14.97
Manacapuru,-3.2997,-60.6206,BR,1613261507,75.2,94,75,4.61
São Domingos do Maranhão,-5.5758,-44.3853,BR,1613261508,75.18,93,99,2.33
Pecos,31.4229,-103.4932,US,1613261509,24.8,86,90,9.22
Wewak,-3.5534,143.6268,PG,1613261362,83.08,74,71,4.29
Preobrazheniye,42.9019,133.9064,RU,1613261510,37.87,78,100,4.54
Portel,-1.9356,-50.8211,BR,1613261511,76.08,94,99,4.68
Inhambane,-23.865,35.3833,MZ,1613261512,80.04,84,1,9.6
Sembakung,3.8167,117.25,ID,1613261239,75.2,94,75,2.3
Shar,49.5886,81.0453,KZ,1613261514,5.5,89,2,7.58
Lakatoro,-16.0999,167.4164,VU,1613261514,84.61,70,100,9.53
Ust-Kuyga,70.0167,135.6,RU,1613261515,-17.05,85,82,2.59
Obo,5.3998,26.4869,CF,1613261516,71.74,28,79,2.73
Porto Belo,-27.1578,-48.5531,BR,1613261516,78.8,83,75,5.75
Nālūt,30.3333,10.85,LY,1613261518,53.71,61,1,13.51
Lima,-12.0432,-77.0282,PE,1613261372,75.0,73,0,13.8
Jackson,42.4165,-122.8345,US,1613261519,48.2,66,20,6.91
Hailar,49.2,119.7,CN,1613261520,-14.94,87,0,6.73
Vyaz'ma,55.2104,34.2951,RU,1613261521,3.6,93,100,12.48
Vao,-22.6667,167.4833,NC,1613261521,79.3,75,0,6.08
Paphos,34.7667,32.4167,CY,1613261522,50.0,87,0,8.05
Marsabit,2.3284,37.9899,KE,1613261523,70.92,60,75,6.13
Solnechnyy,50.7214,136.6319,RU,1613261524,13.71,94,94,1.66
Samarai,-10.6167,150.6667,PG,1613261525,84.13,64,69,0.29
Fendou,46.65,124.8667,CN,1613261526,0.3,86,30,7.9
Kasongo,-4.45,26.6667,CD,1613261526,69.37,99,98,2.64
